{"ID" : "1","Name" : "Goroka","City" : "Goroka","Country" : "Papua New Guinea","IATA" : "GKA","ICAO" : "AYGA","Lat" : "-6.081689","Long" : "145.391881","Alt" : "5282","Timezone" : "10","DST" : "U","TZ" : "Pacific/Port_Moresby"}
{"ID" : "2","Name" : "Madang","City" : "Madang","Country" : "Papua New Guinea","IATA" : "MAG","ICAO" : "AYMD","Lat" : "-5.207083","Long" : "145.7887","Alt" : "20","Timezone" : "10","DST" : "U","TZ" : "Pacific/Port_Moresby"}
{"ID" : "3","Name" : "Mount Hagen","City" : "Mount Hagen","Country" : "Papua New Guinea","IATA" : "HGU","ICAO" : "AYMH","Lat" : "-5.826789","Long" : "144.295861","Alt" : "5388","Timezone" : "10","DST" : "U","TZ" : "Pacific/Port_Moresby"}
{"ID" : "4","Name" : "Nadzab","City" : "Nadzab","Country" : "Papua New Guinea","IATA" : "LAE","ICAO" : "AYNZ","Lat" : "-6.569828","Long" : "146.726242","Alt" : "239","Timezone" : "10","DST" : "U","TZ" : "Pacific/Port_Moresby"}
{"ID" : "5","Name" : "Port Moresby Jacksons Intl","City" : "Port Moresby","Country" : "Papua New Guinea","IATA" : "POM","ICAO" : "AYPY","Lat" : "-9.443383","Long" : "147.22005","Alt" : "146","Timezone" : "10","DST" : "U","TZ" : "Pacific/Port_Moresby"}
{"ID" : "6","Name" : "Wewak Intl","City" : "Wewak","Country" : "Papua New Guinea","IATA" : "WWK","ICAO" : "AYWK","Lat" : "-3.583828","Long" : "143.669186","Alt" : "19","Timezone" : "10","DST" : "U","TZ" : "Pacific/Port_Moresby"}
{"ID" : "7","Name" : "Narsarsuaq","City" : "Narssarssuaq","Country" : "Greenland","IATA" : "UAK","ICAO" : "BGBW","Lat" : "61.160517","Long" : "-45.425978","Alt" : "112","Timezone" : "-3","DST" : "E","TZ" : "America/Godthab"}
{"ID" : "8","Name" : "Nuuk","City" : "Godthaab","Country" : "Greenland","IATA" : "GOH","ICAO" : "BGGH","Lat" : "64.190922","Long" : "-51.678064","Alt" : "283","Timezone" : "-3","DST" : "E","TZ" : "America/Godthab"}
{"ID" : "9","Name" : "Sondre Stromfjord","City" : "Sondrestrom","Country" : "Greenland","IATA" : "SFJ","ICAO" : "BGSF","Lat" : "67.016969","Long" : "-50.689325","Alt" : "165","Timezone" : "-3","DST" : "E","TZ" : "America/Godthab"}
{"ID" : "10","Name" : "Thule Air Base","City" : "Thule","Country" : "Greenland","IATA" : "THU","ICAO" : "BGTL","Lat" : "76.531203","Long" : "-68.703161","Alt" : "251","Timezone" : "-4","DST" : "E","TZ" : "America/Thule"}
{"ID" : "11","Name" : "Akureyri","City" : "Akureyri","Country" : "Iceland","IATA" : "AEY","ICAO" : "BIAR","Lat" : "65.659994","Long" : "-18.072703","Alt" : "6","Timezone" : "0","DST" : "N","TZ" : "Atlantic/Reykjavik"}
{"ID" : "12","Name" : "Egilsstadir","City" : "Egilsstadir","Country" : "Iceland","IATA" : "EGS","ICAO" : "BIEG","Lat" : "65.283333","Long" : "-14.401389","Alt" : "76","Timezone" : "0","DST" : "N","TZ" : "Atlantic/Reykjavik"}
{"ID" : "13","Name" : "Hornafjordur","City" : "Hofn","Country" : "Iceland","IATA" : "HFN","ICAO" : "BIHN","Lat" : "64.295556","Long" : "-15.227222","Alt" : "24","Timezone" : "0","DST" : "N","TZ" : "Atlantic/Reykjavik"}
{"ID" : "14","Name" : "Husavik","City" : "Husavik","Country" : "Iceland","IATA" : "HZK","ICAO" : "BIHU","Lat" : "65.952328","Long" : "-17.425978","Alt" : "48","Timezone" : "0","DST" : "N","TZ" : "Atlantic/Reykjavik"}
{"ID" : "15","Name" : "Isafjordur","City" : "Isafjordur","Country" : "Iceland","IATA" : "IFJ","ICAO" : "BIIS","Lat" : "66.058056","Long" : "-23.135278","Alt" : "8","Timezone" : "0","DST" : "N","TZ" : "Atlantic/Reykjavik"}
{"ID" : "16","Name" : "Keflavik International Airport","City" : "Keflavik","Country" : "Iceland","IATA" : "KEF","ICAO" : "BIKF","Lat" : "63.985","Long" : "-22.605556","Alt" : "171","Timezone" : "0","DST" : "N","TZ" : "Atlantic/Reykjavik"}
{"ID" : "17","Name" : "Patreksfjordur","City" : "Patreksfjordur","Country" : "Iceland","IATA" : "PFJ","ICAO" : "BIPA","Lat" : "65.555833","Long" : "-23.965","Alt" : "11","Timezone" : "0","DST" : "N","TZ" : "Atlantic/Reykjavik"}
{"ID" : "18","Name" : "Reykjavik","City" : "Reykjavik","Country" : "Iceland","IATA" : "RKV","ICAO" : "BIRK","Lat" : "64.13","Long" : "-21.940556","Alt" : "48","Timezone" : "0","DST" : "N","TZ" : "Atlantic/Reykjavik"}
{"ID" : "19","Name" : "Siglufjordur","City" : "Siglufjordur","Country" : "Iceland","IATA" : "SIJ","ICAO" : "BISI","Lat" : "66.133333","Long" : "-18.916667","Alt" : "10","Timezone" : "0","DST" : "N","TZ" : "Atlantic/Reykjavik"}
{"ID" : "20","Name" : "Vestmannaeyjar","City" : "Vestmannaeyjar","Country" : "Iceland","IATA" : "VEY","ICAO" : "BIVM","Lat" : "63.424303","Long" : "-20.278875","Alt" : "326","Timezone" : "0","DST" : "N","TZ" : "Atlantic/Reykjavik"}
{"ID" : "21","Name" : "Sault Ste Marie","City" : "Sault Sainte Marie","Country" : "Canada","IATA" : "YAM","ICAO" : "CYAM","Lat" : "46.485001","Long" : "-84.509445","Alt" : "630","Timezone" : "-5","DST" : "A","TZ" : "America/Toronto"}
{"ID" : "22","Name" : "Winnipeg St Andrews","City" : "Winnipeg","Country" : "Canada","IATA" : "YAV","ICAO" : "CYAV","Lat" : "50.056389","Long" : "-97.0325","Alt" : "760","Timezone" : "-6","DST" : "A","TZ" : "America/Winnipeg"}
{"ID" : "23","Name" : "Shearwater","City" : "Halifax","Country" : "Canada","IATA" : "YAW","ICAO" : "CYAW","Lat" : "44.639721","Long" : "-63.499444","Alt" : "167","Timezone" : "-4","DST" : "A","TZ" : "America/Halifax"}
{"ID" : "24","Name" : "St Anthony","City" : "St. Anthony","Country" : "Canada","IATA" : "YAY","ICAO" : "CYAY","Lat" : "51.391944","Long" : "-56.083056","Alt" : "108","Timezone" : "-3.5","DST" : "A","TZ" : "America/St_Johns"}
{"ID" : "25","Name" : "Tofino","City" : "Tofino","Country" : "Canada","IATA" : "YAZ","ICAO" : "CYAZ","Lat" : "49.082222","Long" : "-125.7725","Alt" : "80","Timezone" : "-8","DST" : "A","TZ" : "America/Vancouver"}
{"ID" : "26","Name" : "Kugaaruk","City" : "Pelly Bay","Country" : "Canada","IATA" : "YBB","ICAO" : "CYBB","Lat" : "68.534444","Long" : "-89.808056","Alt" : "56","Timezone" : "-7","DST" : "A","TZ" : "America/Edmonton"}
{"ID" : "27","Name" : "Baie Comeau","City" : "Baie Comeau","Country" : "Canada","IATA" : "YBC","ICAO" : "CYBC","Lat" : "49.1325","Long" : "-68.204444","Alt" : "71","Timezone" : "-5","DST" : "A","TZ" : "America/Toronto"}
{"ID" : "28","Name" : "Bagotville","City" : "Bagotville","Country" : "Canada","IATA" : "YBG","ICAO" : "CYBG","Lat" : "48.330555","Long" : "-70.996391","Alt" : "522","Timezone" : "-5","DST" : "A","TZ" : "America/Toronto"}
{"ID" : "29","Name" : "Baker Lake","City" : "Baker Lake","Country" : "Canada","IATA" : "YBK","ICAO" : "CYBK","Lat" : "64.298889","Long" : "-96.077778","Alt" : "59","Timezone" : "-6","DST" : "A","TZ" : "America/Winnipeg"}
{"ID" : "30","Name" : "Campbell River","City" : "Campbell River","Country" : "Canada","IATA" : "YBL","ICAO" : "CYBL","Lat" : "49.950832","Long" : "-125.270833","Alt" : "346","Timezone" : "-8","DST" : "A","TZ" : "America/Vancouver"}
{"ID" : "31","Name" : "Brandon Muni","City" : "Brandon","Country" : "Canada","IATA" : "YBR","ICAO" : "CYBR","Lat" : "49.91","Long" : "-99.951944","Alt" : "1343","Timezone" : "-6","DST" : "A","TZ" : "America/Winnipeg"}
{"ID" : "32","Name" : "Cambridge Bay","City" : "Cambridge Bay","Country" : "Canada","IATA" : "YCB","ICAO" : "CYCB","Lat" : "69.108055","Long" : "-105.138333","Alt" : "90","Timezone" : "-7","DST" : "A","TZ" : "America/Edmonton"}
{"ID" : "33","Name" : "Nanaimo","City" : "Nanaimo","Country" : "Canada","IATA" : "YCD","ICAO" : "CYCD","Lat" : "49.052333","Long" : "-123.870167","Alt" : "93","Timezone" : "-8","DST" : "A","TZ" : "America/Vancouver"}
{"ID" : "34","Name" : "Castlegar","City" : "Castlegar","Country" : "Canada","IATA" : "YCG","ICAO" : "CYCG","Lat" : "49.296389","Long" : "-117.6325","Alt" : "1624","Timezone" : "-8","DST" : "A","TZ" : "America/Vancouver"}
{"ID" : "35","Name" : "Miramichi","City" : "Chatham","Country" : "Canada","IATA" : "YCH","ICAO" : "CYCH","Lat" : "47.007778","Long" : "-65.449167","Alt" : "108","Timezone" : "-4","DST" : "A","TZ" : "America/Halifax"}
{"ID" : "36","Name" : "Charlo","City" : "Charlo","Country" : "Canada","IATA" : "YCL","ICAO" : "CYCL","Lat" : "47.990833","Long" : "-66.330278","Alt" : "132","Timezone" : "-4","DST" : "A","TZ" : "America/Halifax"}
{"ID" : "37","Name" : "Kugluktuk","City" : "Coppermine","Country" : "Canada","IATA" : "YCO","ICAO" : "CYCO","Lat" : "67.816667","Long" : "-115.143889","Alt" : "74","Timezone" : "-7","DST" : "A","TZ" : "America/Edmonton"}
{"ID" : "38","Name" : "Coronation","City" : "Coronation","Country" : "Canada","IATA" : "YCT","ICAO" : "CYCT","Lat" : "52.075001","Long" : "-111.445278","Alt" : "2595","Timezone" : "-7","DST" : "A","TZ" : "America/Edmonton"}
{"ID" : "39","Name" : "Chilliwack","City" : "Chilliwack","Country" : "Canada","IATA" : "YCW","ICAO" : "CYCW","Lat" : "49.152779","Long" : "-121.93889","Alt" : "32","Timezone" : "-8","DST" : "A","TZ" : "America/Vancouver"}
{"ID" : "40","Name" : "Clyde River","City" : "Clyde River","Country" : "Canada","IATA" : "YCY","ICAO" : "CYCY","Lat" : "70.486111","Long" : "-68.516667","Alt" : "87","Timezone" : "-5","DST" : "A","TZ" : "America/Toronto"}
{"ID" : "41","Name" : "Fairmont Hot Springs","City" : "Coral Harbour","Country" : "Canada","IATA" : "YZS","ICAO" : "CYCZ","Lat" : "64.193333","Long" : "-83.359444","Alt" : "2661","Timezone" : "-5","DST" : "A","TZ" : "America/Coral_Harbour"}
{"ID" : "42","Name" : "Dawson City","City" : "Dawson","Country" : "Canada","IATA" : "YDA","ICAO" : "CYDA","Lat" : "64.043056","Long" : "-139.127778","Alt" : "1215","Timezone" : "-8","DST" : "A","TZ" : "America/Vancouver"}
{"ID" : "43","Name" : "Burwash","City" : "Burwash","Country" : "Canada","IATA" : "YDB","ICAO" : "CYDB","Lat" : "61.371111","Long" : "-139.040556","Alt" : "2647","Timezone" : "-8","DST" : "A","TZ" : "America/Vancouver"}
{"ID" : "44","Name" : "Princeton","City" : "Princeton","Country" : "Canada","IATA" : "YDC","ICAO" : "CYDC","Lat" : "49.468056","Long" : "-120.511389","Alt" : "2298","Timezone" : "-8","DST" : "A","TZ" : "America/Vancouver"}
{"ID" : "45","Name" : "Deer Lake","City" : "Deer Lake","Country" : "Canada","IATA" : "YDF","ICAO" : "CYDF","Lat" : "49.210833","Long" : "-57.391388","Alt" : "72","Timezone" : "-3.5","DST" : "A","TZ" : "America/St_Johns"}
{"ID" : "46","Name" : "Dease Lake","City" : "Dease Lake","Country" : "Canada","IATA" : "YDL","ICAO" : "CYDL","Lat" : "58.422222","Long" : "-130.032222","Alt" : "2600","Timezone" : "-8","DST" : "A","TZ" : "America/Vancouver"}
{"ID" : "47","Name" : "Dauphin Barker","City" : "Dauphin","Country" : "Canada","IATA" : "YDN","ICAO" : "CYDN","Lat" : "51.100834","Long" : "-100.0525","Alt" : "999","Timezone" : "-6","DST" : "A","TZ" : "America/Winnipeg"}
{"ID" : "48","Name" : "Dawson Creek","City" : "Dawson Creek","Country" : "Canada","IATA" : "YDQ","ICAO" : "CYDQ","Lat" : "55.742333","Long" : "-120.183","Alt" : "2148","Timezone" : "-7","DST" : "A","TZ" : "America/Dawson_Creek"}
{"ID" : "49","Name" : "Edmonton Intl","City" : "Edmonton","Country" : "Canada","IATA" : "YEG","ICAO" : "CYEG","Lat" : "53.309723","Long" : "-113.579722","Alt" : "2373","Timezone" : "-7","DST" : "A","TZ" : "America/Edmonton"}
{"ID" : "50","Name" : "Arviat","City" : "Eskimo Point","Country" : "Canada","IATA" : "YEK","ICAO" : "CYEK","Lat" : "61.094166","Long" : "-94.070833","Alt" : "32","Timezone" : "-6","DST" : "A","TZ" : "America/Winnipeg"}
{"ID" : "51","Name" : "Estevan","City" : "Estevan","Country" : "Canada","IATA" : "YEN","ICAO" : "CYEN","Lat" : "49.210278","Long" : "-102.965833","Alt" : "1905","Timezone" : "-6","DST" : "N","TZ" : "America/Regina"}
{"ID" : "52","Name" : "Edson","City" : "Edson","Country" : "Canada","IATA" : "YET","ICAO" : "CYET","Lat" : "53.578888","Long" : "-116.465","Alt" : "3041","Timezone" : "-7","DST" : "A","TZ" : "America/Edmonton"}
{"ID" : "53","Name" : "Eureka","City" : "Eureka","Country" : "Canada","IATA" : "YEU","ICAO" : "CYEU","Lat" : "79.994722","Long" : "-85.814167","Alt" : "256","Timezone" : "-6","DST" : "A","TZ" : "America/Winnipeg"}
{"ID" : "54","Name" : "Inuvik Mike Zubko","City" : "Inuvik","Country" : "Canada","IATA" : "YEV","ICAO" : "CYEV","Lat" : "68.304167","Long" : "-133.482778","Alt" : "224","Timezone" : "-7","DST" : "A","TZ" : "America/Edmonton"}
{"ID" : "55","Name" : "Iqaluit","City" : "Iqaluit","Country" : "Canada","IATA" : "YFB","ICAO" : "CYFB","Lat" : "63.75639","Long" : "-68.555832","Alt" : "110","Timezone" : "-5","DST" : "A","TZ" : "America/Toronto"}
{"ID" : "56","Name" : "Fredericton","City" : "Fredericton","Country" : "Canada","IATA" : "YFC","ICAO" : "CYFC","Lat" : "45.868889","Long" : "-66.537222","Alt" : "68","Timezone" : "-4","DST" : "A","TZ" : "America/Halifax"}
{"ID" : "57","Name" : "Forestville","City" : "Forestville","Country" : "Canada","IATA" : null,"ICAO" : "CYFE","Lat" : "48.746111","Long" : "-69.097222","Alt" : "293","Timezone" : "-5","DST" : "A","TZ" : "America/Toronto"}
{"ID" : "58","Name" : "Flin Flon","City" : "Flin Flon","Country" : "Canada","IATA" : "YFO","ICAO" : "CYFO","Lat" : "54.678055","Long" : "-101.681667","Alt" : "997","Timezone" : "-6","DST" : "A","TZ" : "America/Winnipeg"}
{"ID" : "59","Name" : "Fort Resolution","City" : "Fort Resolution","Country" : "Canada","IATA" : "YFR","ICAO" : "CYFR","Lat" : "61.180832","Long" : "-113.689722","Alt" : "526","Timezone" : "-7","DST" : "A","TZ" : "America/Edmonton"}
{"ID" : "60","Name" : "Fort Simpson","City" : "Fort Simpson","Country" : "Canada","IATA" : "YFS","ICAO" : "CYFS","Lat" : "61.760153","Long" : "-121.236525","Alt" : "555","Timezone" : "-7","DST" : "A","TZ" : "America/Edmonton"}
{"ID" : "61","Name" : "Kingston","City" : "Kingston","Country" : "Canada","IATA" : "YGK","ICAO" : "CYGK","Lat" : "44.225277","Long" : "-76.596944","Alt" : "305","Timezone" : "-5","DST" : "A","TZ" : "America/Toronto"}
{"ID" : "62","Name" : "La Grande Riviere","City" : "La Grande Riviere","Country" : "Canada","IATA" : "YGL","ICAO" : "CYGL","Lat" : "53.625278","Long" : "-77.704167","Alt" : "639","Timezone" : "-5","DST" : "A","TZ" : "America/Toronto"}
{"ID" : "63","Name" : "Gaspe","City" : "Gaspe","Country" : "Canada","IATA" : "YGP","ICAO" : "CYGP","Lat" : "48.775278","Long" : "-64.478611","Alt" : "108","Timezone" : "-5","DST" : "A","TZ" : "America/Toronto"}
{"ID" : "64","Name" : "Geraldton Greenstone Regional","City" : "Geraldton","Country" : "Canada","IATA" : "YGQ","ICAO" : "CYGQ","Lat" : "49.778332","Long" : "-86.939445","Alt" : "1144","Timezone" : "-5","DST" : "A","TZ" : "America/Toronto"}
{"ID" : "65","Name" : "Iles De La Madeleine","City" : "Iles De La Madeleine","Country" : "Canada","IATA" : "YGR","ICAO" : "CYGR","Lat" : "47.424721","Long" : "-61.778056","Alt" : "35","Timezone" : "-5","DST" : "A","TZ" : "America/Toronto"}
{"ID" : "66","Name" : "Hudson Bay","City" : "Hudson Bay","Country" : "Canada","IATA" : "YHB","ICAO" : "CYHB","Lat" : "52.816666","Long" : "-102.31139","Alt" : "1175","Timezone" : "-6","DST" : "N","TZ" : "America/Regina"}
{"ID" : "67","Name" : "Dryden Rgnl","City" : "Dryden","Country" : "Canada","IATA" : "YHD","ICAO" : "CYHD","Lat" : "49.831667","Long" : "-92.744167","Alt" : "1354","Timezone" : "-6","DST" : "A","TZ" : "America/Winnipeg"}
{"ID" : "68","Name" : "Ulukhaktok Holman","City" : "Holman Island","Country" : "Canada","IATA" : "YHI","ICAO" : "CYHI","Lat" : "70.762778","Long" : "-117.806111","Alt" : "117","Timezone" : "-7","DST" : "A","TZ" : "America/Edmonton"}
{"ID" : "69","Name" : "Gjoa Haven","City" : "Gjoa Haven","Country" : "Canada","IATA" : "YHK","ICAO" : "CYHK","Lat" : "68.635556","Long" : "-95.849722","Alt" : "152","Timezone" : "-7","DST" : "A","TZ" : "America/Edmonton"}
{"ID" : "70","Name" : "Hamilton","City" : "Hamilton","Country" : "Canada","IATA" : "YHM","ICAO" : "CYHM","Lat" : "43.173611","Long" : "-79.935","Alt" : "780","Timezone" : "-5","DST" : "A","TZ" : "America/Toronto"}
{"ID" : "71","Name" : "St Hubert","City" : "Montreal","Country" : "Canada","IATA" : "YHU","ICAO" : "CYHU","Lat" : "45.5175","Long" : "-73.416944","Alt" : "90","Timezone" : "-5","DST" : "A","TZ" : "America/Toronto"}
{"ID" : "72","Name" : "Hay River","City" : "Hay River","Country" : "Canada","IATA" : "YHY","ICAO" : "CYHY","Lat" : "60.839722","Long" : "-115.782778","Alt" : "543","Timezone" : "-7","DST" : "A","TZ" : "America/Edmonton"}
{"ID" : "73","Name" : "Halifax Intl","City" : "Halifax","Country" : "Canada","IATA" : "YHZ","ICAO" : "CYHZ","Lat" : "44.880833","Long" : "-63.50861","Alt" : "477","Timezone" : "-4","DST" : "A","TZ" : "America/Halifax"}
{"ID" : "74","Name" : "Atikokan Muni","City" : "Atikokan","Country" : "Canada","IATA" : "YIB","ICAO" : "CYIB","Lat" : "48.773888","Long" : "-91.638611","Alt" : "1408","Timezone" : "-5","DST" : "A","TZ" : "America/Coral_Harbour"}
{"ID" : "75","Name" : "Pond Inlet","City" : "Pond Inlet","Country" : "Canada","IATA" : "YIO","ICAO" : "CYIO","Lat" : "72.683334","Long" : "-77.966667","Alt" : "181","Timezone" : "-5","DST" : "A","TZ" : "America/Toronto"}
{"ID" : "76","Name" : "St Jean","City" : "St. Jean","Country" : "Canada","IATA" : "YJN","ICAO" : "CYJN","Lat" : "45.294445","Long" : "-73.281111","Alt" : "136","Timezone" : "-5","DST" : "A","TZ" : "America/Toronto"}
{"ID" : "77","Name" : "Stephenville","City" : "Stephenville","Country" : "Canada","IATA" : "YJT","ICAO" : "CYJT","Lat" : "48.544167","Long" : "-58.549999","Alt" : "80","Timezone" : "-3.5","DST" : "A","TZ" : "America/St_Johns"}
{"ID" : "78","Name" : "Kamloops","City" : "Kamloops","Country" : "Canada","IATA" : "YKA","ICAO" : "CYKA","Lat" : "50.702222","Long" : "-120.444444","Alt" : "1133","Timezone" : "-8","DST" : "A","TZ" : "America/Vancouver"}
{"ID" : "79","Name" : "Waterloo","City" : "Waterloo","Country" : "Canada","IATA" : "YKF","ICAO" : "CYKF","Lat" : "43.460833","Long" : "-80.378611","Alt" : "1054","Timezone" : "-5","DST" : "A","TZ" : "America/Toronto"}
{"ID" : "80","Name" : "Schefferville","City" : "Schefferville","Country" : "Canada","IATA" : "YKL","ICAO" : "CYKL","Lat" : "54.805278","Long" : "-66.805278","Alt" : "1709","Timezone" : "-5","DST" : "A","TZ" : "America/Toronto"}
{"ID" : "81","Name" : "Kindersley","City" : "Kindersley","Country" : "Canada","IATA" : "YKY","ICAO" : "CYKY","Lat" : "51.5175","Long" : "-109.180833","Alt" : "2277","Timezone" : "-6","DST" : "N","TZ" : "America/Regina"}
{"ID" : "82","Name" : "Buttonville Muni","City" : "Toronto","Country" : "Canada","IATA" : "YKZ","ICAO" : "CYKZ","Lat" : "43.862221","Long" : "-79.37","Alt" : "650","Timezone" : "-5","DST" : "A","TZ" : "America/Toronto"}
{"ID" : "83","Name" : "Chapleau","City" : "Chapleau","Country" : "Canada","IATA" : "YLD","ICAO" : "CYLD","Lat" : "47.82","Long" : "-83.346667","Alt" : "1470","Timezone" : "-5","DST" : "A","TZ" : "America/Toronto"}
{"ID" : "84","Name" : "Meadow Lake","City" : "Meadow Lake","Country" : "Canada","IATA" : "YLJ","ICAO" : "CYLJ","Lat" : "54.125278","Long" : "-108.522778","Alt" : "1576","Timezone" : "-6","DST" : "N","TZ" : "America/Regina"}
{"ID" : "85","Name" : "Lloydminster","City" : "Lloydminster","Country" : "Canada","IATA" : "YLL","ICAO" : "CYLL","Lat" : "53.309166","Long" : "-110.0725","Alt" : "2193","Timezone" : "-7","DST" : "A","TZ" : "America/Edmonton"}
{"ID" : "86","Name" : "Alert","City" : "Alert","Country" : "Canada","IATA" : "YLT","ICAO" : "CYLT","Lat" : "82.517778","Long" : "-62.280556","Alt" : "100","Timezone" : "-5","DST" : "A","TZ" : "America/Toronto"}
{"ID" : "87","Name" : "Kelowna","City" : "Kelowna","Country" : "Canada","IATA" : "YLW","ICAO" : "CYLW","Lat" : "49.956112","Long" : "-119.377778","Alt" : "1409","Timezone" : "-8","DST" : "A","TZ" : "America/Vancouver"}
{"ID" : "88","Name" : "Mayo","City" : "Mayo","Country" : "Canada","IATA" : "YMA","ICAO" : "CYMA","Lat" : "63.616389","Long" : "-135.868333","Alt" : "1653","Timezone" : "-8","DST" : "A","TZ" : "America/Vancouver"}
{"ID" : "89","Name" : "Moose Jaw Air Vice Marshal C M Mcewen","City" : "Moose Jaw","Country" : "Canada","IATA" : "YMJ","ICAO" : "CYMJ","Lat" : "50.330278","Long" : "-105.559167","Alt" : "1892","Timezone" : "-6","DST" : "N","TZ" : "America/Regina"}
{"ID" : "90","Name" : "Fort Mcmurray","City" : "Fort Mcmurray","Country" : "Canada","IATA" : "YMM","ICAO" : "CYMM","Lat" : "56.653333","Long" : "-111.221944","Alt" : "1211","Timezone" : "-7","DST" : "A","TZ" : "America/Edmonton"}
{"ID" : "91","Name" : "Moosonee","City" : "Moosonee","Country" : "Canada","IATA" : "YMO","ICAO" : "CYMO","Lat" : "51.291111","Long" : "-80.607778","Alt" : "30","Timezone" : "-5","DST" : "A","TZ" : "America/Toronto"}
{"ID" : "92","Name" : "Maniwaki","City" : "Maniwaki","Country" : "Canada","IATA" : "YMW","ICAO" : "CYMW","Lat" : "46.272778","Long" : "-75.990556","Alt" : "656","Timezone" : "-5","DST" : "A","TZ" : "America/Toronto"}
{"ID" : "93","Name" : "Montreal Intl Mirabel","City" : "Montreal","Country" : "Canada","IATA" : "YMX","ICAO" : "CYMX","Lat" : "45.681944","Long" : "-74.005278","Alt" : "270","Timezone" : "-5","DST" : "A","TZ" : "America/Toronto"}
{"ID" : "94","Name" : "Natashquan","City" : "Natashquan","Country" : "Canada","IATA" : "YNA","ICAO" : "CYNA","Lat" : "50.19","Long" : "-61.789167","Alt" : "39","Timezone" : "-5","DST" : "A","TZ" : "America/Toronto"}
{"ID" : "95","Name" : "Gatineau","City" : "Gatineau","Country" : "Canada","IATA" : "YND","ICAO" : "CYND","Lat" : "45.521694","Long" : "-75.563589","Alt" : "211","Timezone" : "-5","DST" : "A","TZ" : "America/Toronto"}
{"ID" : "96","Name" : "Matagami","City" : "Matagami","Country" : "Canada","IATA" : "YNM","ICAO" : "CYNM","Lat" : "49.761667","Long" : "-77.802778","Alt" : "918","Timezone" : "-5","DST" : "A","TZ" : "America/Toronto"}
{"ID" : "97","Name" : "Old Crow","City" : "Old Crow","Country" : "Canada","IATA" : "YOC","ICAO" : "CYOC","Lat" : "67.570556","Long" : "-139.839167","Alt" : "824","Timezone" : "-8","DST" : "A","TZ" : "America/Vancouver"}
{"ID" : "98","Name" : "Cold Lake","City" : "Cold Lake","Country" : "Canada","IATA" : "YOD","ICAO" : "CYOD","Lat" : "54.404999","Long" : "-110.279444","Alt" : "1775","Timezone" : "-7","DST" : "A","TZ" : "America/Edmonton"}
{"ID" : "99","Name" : "High Level","City" : "High Level","Country" : "Canada","IATA" : "YOJ","ICAO" : "CYOJ","Lat" : "58.621389","Long" : "-117.164722","Alt" : "1110","Timezone" : "-7","DST" : "A","TZ" : "America/Edmonton"}
{"ID" : "100","Name" : "Ottawa Macdonald Cartier Intl","City" : "Ottawa","Country" : "Canada","IATA" : "YOW","ICAO" : "CYOW","Lat" : "45.3225","Long" : "-75.669167","Alt" : "374","Timezone" : "-5","DST" : "A","TZ" : "America/Toronto"}
{"ID" : "101","Name" : "Prince Albert Glass Field","City" : "Prince Albert","Country" : "Canada","IATA" : "YPA","ICAO" : "CYPA","Lat" : "53.214167","Long" : "-105.672778","Alt" : "1405","Timezone" : "-6","DST" : "N","TZ" : "America/Regina"}
{"ID" : "102","Name" : "Peace River","City" : "Peace River","Country" : "Canada","IATA" : "YPE","ICAO" : "CYPE","Lat" : "56.226944","Long" : "-117.447222","Alt" : "1873","Timezone" : "-7","DST" : "A","TZ" : "America/Edmonton"}
{"ID" : "103","Name" : "Southport","City" : "Portage-la-prairie","Country" : "Canada","IATA" : "YPG","ICAO" : "CYPG","Lat" : "49.903056","Long" : "-98.273889","Alt" : "885","Timezone" : "-6","DST" : "A","TZ" : "America/Winnipeg"}
{"ID" : "104","Name" : "Pitt Meadows","City" : "Pitt Meadows","Country" : "Canada","IATA" : null,"ICAO" : "CYPK","Lat" : "49.21611","Long" : "-122.71","Alt" : "11","Timezone" : "-8","DST" : "A","TZ" : "America/Vancouver"}
{"ID" : "105","Name" : "Pickle Lake","City" : "Pickle Lake","Country" : "Canada","IATA" : "YPL","ICAO" : "CYPL","Lat" : "51.446388","Long" : "-90.214167","Alt" : "1267","Timezone" : "-5","DST" : "A","TZ" : "America/Coral_Harbour"}
{"ID" : "106","Name" : "Port Menier","City" : "Port Menier","Country" : "Canada","IATA" : "YPN","ICAO" : "CYPN","Lat" : "49.836389","Long" : "-64.288611","Alt" : "167","Timezone" : "-5","DST" : "A","TZ" : "America/Toronto"}
{"ID" : "107","Name" : "Peterborough","City" : "Peterborough","Country" : "Canada","IATA" : "YPQ","ICAO" : "CYPQ","Lat" : "44.23","Long" : "-78.363333","Alt" : "628","Timezone" : "-5","DST" : "A","TZ" : "America/Toronto"}
{"ID" : "108","Name" : "Prince Rupert","City" : "Prince Pupert","Country" : "Canada","IATA" : "YPR","ICAO" : "CYPR","Lat" : "54.28611","Long" : "-130.444722","Alt" : "116","Timezone" : "-8","DST" : "A","TZ" : "America/Vancouver"}
{"ID" : "109","Name" : "Fort Chipewyan","City" : "Fort Chipewyan","Country" : "Canada","IATA" : "YPY","ICAO" : "CYPY","Lat" : "58.767223","Long" : "-111.117222","Alt" : "761","Timezone" : "-7","DST" : "A","TZ" : "America/Edmonton"}
{"ID" : "110","Name" : "Muskoka","City" : "Muskoka","Country" : "Canada","IATA" : "YQA","ICAO" : "CYQA","Lat" : "44.974722","Long" : "-79.303333","Alt" : "925","Timezone" : "-5","DST" : "A","TZ" : "America/Toronto"}
{"ID" : "111","Name" : "Quebec Jean Lesage Intl","City" : "Quebec","Country" : "Canada","IATA" : "YQB","ICAO" : "CYQB","Lat" : "46.791111","Long" : "-71.393333","Alt" : "244","Timezone" : "-5","DST" : "A","TZ" : "America/Toronto"}
{"ID" : "112","Name" : "Red Deer Regional","City" : "Red Deer Industrial","Country" : "Canada","IATA" : "YQF","ICAO" : "CYQF","Lat" : "52.182222","Long" : "-113.894444","Alt" : "2968","Timezone" : "-7","DST" : "A","TZ" : "America/Edmonton"}
{"ID" : "113","Name" : "Windsor","City" : "Windsor","Country" : "Canada","IATA" : "YQG","ICAO" : "CYQG","Lat" : "42.275556","Long" : "-82.955556","Alt" : "622","Timezone" : "-5","DST" : "A","TZ" : "America/Toronto"}
{"ID" : "114","Name" : "Watson Lake","City" : "Watson Lake","Country" : "Canada","IATA" : "YQH","ICAO" : "CYQH","Lat" : "60.116389","Long" : "-128.8225","Alt" : "2255","Timezone" : "-8","DST" : "A","TZ" : "America/Vancouver"}
{"ID" : "115","Name" : "Kenora","City" : "Kenora","Country" : "Canada","IATA" : "YQK","ICAO" : "CYQK","Lat" : "49.788334","Long" : "-94.363056","Alt" : "1332","Timezone" : "-6","DST" : "A","TZ" : "America/Winnipeg"}
{"ID" : "116","Name" : "Lethbridge","City" : "Lethbridge","Country" : "Canada","IATA" : "YQL","ICAO" : "CYQL","Lat" : "49.630278","Long" : "-112.799722","Alt" : "3047","Timezone" : "-7","DST" : "A","TZ" : "America/Edmonton"}
{"ID" : "117","Name" : "Greater Moncton Intl","City" : "Moncton","Country" : "Canada","IATA" : "YQM","ICAO" : "CYQM","Lat" : "46.112221","Long" : "-64.678611","Alt" : "232","Timezone" : "-4","DST" : "A","TZ" : "America/Halifax"}
{"ID" : "119","Name" : "Comox","City" : "Comox","Country" : "Canada","IATA" : "YQQ","ICAO" : "CYQQ","Lat" : "49.710833","Long" : "-124.886667","Alt" : "84","Timezone" : "-8","DST" : "A","TZ" : "America/Vancouver"}
{"ID" : "120","Name" : "Regina Intl","City" : "Regina","Country" : "Canada","IATA" : "YQR","ICAO" : "CYQR","Lat" : "50.431944","Long" : "-104.665833","Alt" : "1894","Timezone" : "-6","DST" : "N","TZ" : "America/Regina"}
{"ID" : "121","Name" : "Thunder Bay","City" : "Thunder Bay","Country" : "Canada","IATA" : "YQT","ICAO" : "CYQT","Lat" : "48.371944","Long" : "-89.323889","Alt" : "653","Timezone" : "-5","DST" : "A","TZ" : "America/Toronto"}
{"ID" : "122","Name" : "Grande Prairie","City" : "Grande Prairie","Country" : "Canada","IATA" : "YQU","ICAO" : "CYQU","Lat" : "55.179722","Long" : "-118.885","Alt" : "2195","Timezone" : "-7","DST" : "A","TZ" : "America/Edmonton"}
{"ID" : "123","Name" : "Yorkton Muni","City" : "Yorkton","Country" : "Canada","IATA" : "YQV","ICAO" : "CYQV","Lat" : "51.264721","Long" : "-102.461667","Alt" : "1635","Timezone" : "-6","DST" : "N","TZ" : "America/Regina"}
{"ID" : "124","Name" : "North Battleford","City" : "North Battleford","Country" : "Canada","IATA" : "YQW","ICAO" : "CYQW","Lat" : "52.769167","Long" : "-108.24361","Alt" : "1799","Timezone" : "-6","DST" : "N","TZ" : "America/Regina"}
{"ID" : "125","Name" : "Gander Intl","City" : "Gander","Country" : "Canada","IATA" : "YQX","ICAO" : "CYQX","Lat" : "48.936944","Long" : "-54.568056","Alt" : "496","Timezone" : "-3.5","DST" : "A","TZ" : "America/St_Johns"}
{"ID" : "126","Name" : "Sydney","City" : "Sydney","Country" : "Canada","IATA" : "YQY","ICAO" : "CYQY","Lat" : "46.161388","Long" : "-60.047779","Alt" : "203","Timezone" : "-4","DST" : "A","TZ" : "America/Halifax"}
{"ID" : "127","Name" : "Quesnel","City" : "Quesnel","Country" : "Canada","IATA" : "YQZ","ICAO" : "CYQZ","Lat" : "53.026112","Long" : "-122.510278","Alt" : "1789","Timezone" : "-8","DST" : "A","TZ" : "America/Vancouver"}
{"ID" : "128","Name" : "Resolute Bay","City" : "Resolute","Country" : "Canada","IATA" : "YRB","ICAO" : "CYRB","Lat" : "74.716944","Long" : "-94.969444","Alt" : "215","Timezone" : "-6","DST" : "A","TZ" : "America/Winnipeg"}
{"ID" : "129","Name" : "Riviere Du Loup","City" : "Riviere Du Loup","Country" : "Canada","IATA" : "YRI","ICAO" : "CYRI","Lat" : "47.764444","Long" : "-69.584722","Alt" : "427","Timezone" : "-5","DST" : "A","TZ" : "America/Toronto"}
{"ID" : "130","Name" : "Roberval","City" : "Roberval","Country" : "Canada","IATA" : "YRJ","ICAO" : "CYRJ","Lat" : "48.52","Long" : "-72.265556","Alt" : "586","Timezone" : "-5","DST" : "A","TZ" : "America/Toronto"}
{"ID" : "131","Name" : "Rocky Mountain House","City" : "Rocky Mountain House","Country" : "Canada","IATA" : "YRM","ICAO" : "CYRM","Lat" : "52.429722","Long" : "-114.904167","Alt" : "3244","Timezone" : "-7","DST" : "A","TZ" : "America/Edmonton"}
{"ID" : "132","Name" : "Rankin Inlet","City" : "Rankin Inlet","Country" : "Canada","IATA" : "YRT","ICAO" : "CYRT","Lat" : "62.81139","Long" : "-92.115833","Alt" : "94","Timezone" : "-6","DST" : "A","TZ" : "America/Winnipeg"}
{"ID" : "133","Name" : "Sudbury","City" : "Sudbury","Country" : "Canada","IATA" : "YSB","ICAO" : "CYSB","Lat" : "46.625","Long" : "-80.798889","Alt" : "1141","Timezone" : "-5","DST" : "A","TZ" : "America/Toronto"}
{"ID" : "134","Name" : "Sherbrooke","City" : "Sherbrooke","Country" : "Canada","IATA" : "YSC","ICAO" : "CYSC","Lat" : "45.438611","Long" : "-71.691389","Alt" : "792","Timezone" : "-5","DST" : "A","TZ" : "America/Toronto"}
{"ID" : "135","Name" : "Saint John","City" : "St. John","Country" : "Canada","IATA" : "YSJ","ICAO" : "CYSJ","Lat" : "45.316111","Long" : "-65.890278","Alt" : "357","Timezone" : "-4","DST" : "A","TZ" : "America/Halifax"}
{"ID" : "136","Name" : "Fort Smith","City" : "Fort Smith","Country" : "Canada","IATA" : "YSM","ICAO" : "CYSM","Lat" : "60.020278","Long" : "-111.961944","Alt" : "671","Timezone" : "-7","DST" : "A","TZ" : "America/Edmonton"}
{"ID" : "137","Name" : "Nanisivik","City" : "Nanisivik","Country" : "Canada","IATA" : "YSR","ICAO" : "CYSR","Lat" : "72.982222","Long" : "-84.613611","Alt" : "2106","Timezone" : "-5","DST" : "A","TZ" : "America/Toronto"}
{"ID" : "138","Name" : "Summerside","City" : "Summerside","Country" : "Canada","IATA" : "YSU","ICAO" : "CYSU","Lat" : "46.440556","Long" : "-63.833611","Alt" : "56","Timezone" : "-4","DST" : "A","TZ" : "America/Halifax"}
{"ID" : "139","Name" : "Sachs Harbour","City" : "Sachs Harbour","Country" : "Canada","IATA" : "YSY","ICAO" : "CYSY","Lat" : "71.993889","Long" : "-125.2425","Alt" : "282","Timezone" : "-7","DST" : "A","TZ" : "America/Edmonton"}
{"ID" : "140","Name" : "Cape Dorset","City" : "Cape Dorset","Country" : "Canada","IATA" : "YTE","ICAO" : "CYTE","Lat" : "64.23","Long" : "-76.526667","Alt" : "164","Timezone" : "-5","DST" : "A","TZ" : "America/Toronto"}
{"ID" : "141","Name" : "Thompson","City" : "Thompson","Country" : "Canada","IATA" : "YTH","ICAO" : "CYTH","Lat" : "55.801111","Long" : "-97.864166","Alt" : "729","Timezone" : "-6","DST" : "A","TZ" : "America/Winnipeg"}
{"ID" : "142","Name" : "Trenton","City" : "Trenton","Country" : "Canada","IATA" : "YTR","ICAO" : "CYTR","Lat" : "44.118889","Long" : "-77.528056","Alt" : "283","Timezone" : "-5","DST" : "A","TZ" : "America/Toronto"}
{"ID" : "143","Name" : "Timmins","City" : "Timmins","Country" : "Canada","IATA" : "YTS","ICAO" : "CYTS","Lat" : "48.569721","Long" : "-81.376667","Alt" : "967","Timezone" : "-5","DST" : "A","TZ" : "America/Toronto"}
{"ID" : "144","Name" : "City Centre","City" : "Toronto","Country" : "Canada","IATA" : "YTZ","ICAO" : "CYTZ","Lat" : "43.627499","Long" : "-79.396167","Alt" : "251","Timezone" : "-5","DST" : "A","TZ" : "America/Toronto"}
{"ID" : "145","Name" : "Tuktoyaktuk","City" : "Tuktoyaktuk","Country" : "Canada","IATA" : "YUB","ICAO" : "CYUB","Lat" : "69.433334","Long" : "-133.026389","Alt" : "15","Timezone" : "-7","DST" : "A","TZ" : "America/Edmonton"}
{"ID" : "146","Name" : "Pierre Elliott Trudeau Intl","City" : "Montreal","Country" : "Canada","IATA" : "YUL","ICAO" : "CYUL","Lat" : "45.470556","Long" : "-73.740833","Alt" : "118","Timezone" : "-5","DST" : "A","TZ" : "America/Toronto"}
{"ID" : "147","Name" : "Repulse Bay","City" : "Repulse Bay","Country" : "Canada","IATA" : "YUT","ICAO" : "CYUT","Lat" : "66.521389","Long" : "-86.224722","Alt" : "80","Timezone" : "-6","DST" : "A","TZ" : "America/Winnipeg"}
{"ID" : "148","Name" : "Hall Beach","City" : "Hall Beach","Country" : "Canada","IATA" : "YUX","ICAO" : "CYUX","Lat" : "68.776111","Long" : "-81.243611","Alt" : "27","Timezone" : "-5","DST" : "A","TZ" : "America/Toronto"}
{"ID" : "149","Name" : "Rouyn Noranda","City" : "Rouyn","Country" : "Canada","IATA" : "YUY","ICAO" : "CYUY","Lat" : "48.206111","Long" : "-78.835556","Alt" : "988","Timezone" : "-5","DST" : "A","TZ" : "America/Toronto"}
{"ID" : "150","Name" : "La Ronge","City" : "La Ronge","Country" : "Canada","IATA" : "YVC","ICAO" : "CYVC","Lat" : "55.15139","Long" : "-105.261944","Alt" : "1242","Timezone" : "-6","DST" : "N","TZ" : "America/Regina"}
{"ID" : "151","Name" : "Vermilion","City" : "Vermillion","Country" : "Canada","IATA" : "YVG","ICAO" : "CYVG","Lat" : "53.355833","Long" : "-110.82389","Alt" : "2025","Timezone" : "-7","DST" : "A","TZ" : "America/Edmonton"}
{"ID" : "152","Name" : "Qikiqtarjuaq","City" : "Broughton Island","Country" : "Canada","IATA" : "YVM","ICAO" : "CYVM","Lat" : "67.545833","Long" : "-64.031389","Alt" : "21","Timezone" : "-5","DST" : "A","TZ" : "America/Toronto"}
{"ID" : "153","Name" : "Val D Or","City" : "Val D'or","Country" : "Canada","IATA" : "YVO","ICAO" : "CYVO","Lat" : "48.053333","Long" : "-77.782778","Alt" : "1107","Timezone" : "-5","DST" : "A","TZ" : "America/Toronto"}
{"ID" : "154","Name" : "Kuujjuaq","City" : "Quujjuaq","Country" : "Canada","IATA" : "YVP","ICAO" : "CYVP","Lat" : "58.096111","Long" : "-68.426944","Alt" : "129","Timezone" : "-5","DST" : "A","TZ" : "America/Toronto"}
{"ID" : "155","Name" : "Norman Wells","City" : "Norman Wells","Country" : "Canada","IATA" : "YVQ","ICAO" : "CYVQ","Lat" : "65.281617","Long" : "-126.798219","Alt" : "238","Timezone" : "-7","DST" : "A","TZ" : "America/Edmonton"}
{"ID" : "156","Name" : "Vancouver Intl","City" : "Vancouver","Country" : "Canada","IATA" : "YVR","ICAO" : "CYVR","Lat" : "49.193889","Long" : "-123.184444","Alt" : "14","Timezone" : "-8","DST" : "A","TZ" : "America/Vancouver"}
{"ID" : "157","Name" : "Buffalo Narrows","City" : "Buffalo Narrows","Country" : "Canada","IATA" : "YVT","ICAO" : "CYVT","Lat" : "55.841944","Long" : "-108.4175","Alt" : "1444","Timezone" : "-6","DST" : "N","TZ" : "America/Regina"}
{"ID" : "158","Name" : "Wiarton","City" : "Wiarton","Country" : "Canada","IATA" : "YVV","ICAO" : "CYVV","Lat" : "44.745834","Long" : "-81.107222","Alt" : "729","Timezone" : "-5","DST" : "A","TZ" : "America/Toronto"}
{"ID" : "159","Name" : "Petawawa","City" : "Petawawa","Country" : "Canada","IATA" : "YWA","ICAO" : "CYWA","Lat" : "45.952221","Long" : "-77.319168","Alt" : "427","Timezone" : "-5","DST" : "A","TZ" : "America/Toronto"}
{"ID" : "160","Name" : "Winnipeg Intl","City" : "Winnipeg","Country" : "Canada","IATA" : "YWG","ICAO" : "CYWG","Lat" : "49.910036","Long" : "-97.239886","Alt" : "783","Timezone" : "-6","DST" : "A","TZ" : "America/Winnipeg"}
{"ID" : "161","Name" : "Wabush","City" : "Wabush","Country" : "Canada","IATA" : "YWK","ICAO" : "CYWK","Lat" : "52.921944","Long" : "-66.864444","Alt" : "1808","Timezone" : "-4","DST" : "A","TZ" : "America/Halifax"}
{"ID" : "162","Name" : "Williams Lake","City" : "Williams Lake","Country" : "Canada","IATA" : "YWL","ICAO" : "CYWL","Lat" : "52.183056","Long" : "-122.054167","Alt" : "3085","Timezone" : "-8","DST" : "A","TZ" : "America/Vancouver"}
{"ID" : "163","Name" : "Wrigley","City" : "Wrigley","Country" : "Canada","IATA" : "YWY","ICAO" : "CYWY","Lat" : "63.209444","Long" : "-123.436667","Alt" : "489","Timezone" : "-7","DST" : "A","TZ" : "America/Edmonton"}
{"ID" : "164","Name" : "Canadian Rockies Intl","City" : "Cranbrook","Country" : "Canada","IATA" : "YXC","ICAO" : "CYXC","Lat" : "49.612222","Long" : "-115.781944","Alt" : "3084","Timezone" : "-7","DST" : "A","TZ" : "America/Edmonton"}
{"ID" : "165","Name" : "Edmonton City Centre","City" : "Edmonton","Country" : "Canada","IATA" : "YXD","ICAO" : "CYXD","Lat" : "53.5725","Long" : "-113.520556","Alt" : "2200","Timezone" : "-7","DST" : "A","TZ" : "America/Edmonton"}
{"ID" : "166","Name" : "Saskatoon J G Diefenbaker Intl","City" : "Saskatoon","Country" : "Canada","IATA" : "YXE","ICAO" : "CYXE","Lat" : "52.170834","Long" : "-106.699722","Alt" : "1653","Timezone" : "-6","DST" : "N","TZ" : "America/Regina"}
{"ID" : "167","Name" : "Medicine Hat","City" : "Medicine Hat","Country" : "Canada","IATA" : "YXH","ICAO" : "CYXH","Lat" : "50.01889","Long" : "-110.720833","Alt" : "2352","Timezone" : "-7","DST" : "A","TZ" : "America/Edmonton"}
{"ID" : "168","Name" : "Fort St John","City" : "Fort Saint John","Country" : "Canada","IATA" : "YXJ","ICAO" : "CYXJ","Lat" : "56.238056","Long" : "-120.740278","Alt" : "2280","Timezone" : "-7","DST" : "A","TZ" : "America/Dawson_Creek"}
{"ID" : "169","Name" : "Sioux Lookout","City" : "Sioux Lookout","Country" : "Canada","IATA" : "YXL","ICAO" : "CYXL","Lat" : "50.113889","Long" : "-91.905278","Alt" : "1258","Timezone" : "-6","DST" : "A","TZ" : "America/Winnipeg"}
{"ID" : "170","Name" : "Pangnirtung","City" : "Pangnirtung","Country" : "Canada","IATA" : "YXP","ICAO" : "CYXP","Lat" : "66.145","Long" : "-65.713611","Alt" : "75","Timezone" : "-5","DST" : "A","TZ" : "America/Toronto"}
{"ID" : "171","Name" : "Timiskaming Rgnl","City" : "Earlton","Country" : "Canada","IATA" : "YXR","ICAO" : "CYXR","Lat" : "47.695","Long" : "-79.848889","Alt" : "798","Timezone" : "-5","DST" : "A","TZ" : "America/Toronto"}
{"ID" : "172","Name" : "Prince George","City" : "Prince George","Country" : "Canada","IATA" : "YXS","ICAO" : "CYXS","Lat" : "53.889444","Long" : "-122.678889","Alt" : "2267","Timezone" : "-8","DST" : "A","TZ" : "America/Vancouver"}
{"ID" : "173","Name" : "Terrace","City" : "Terrace","Country" : "Canada","IATA" : "YXT","ICAO" : "CYXT","Lat" : "54.468508","Long" : "-128.576219","Alt" : "713","Timezone" : "-8","DST" : "A","TZ" : "America/Vancouver"}
{"ID" : "174","Name" : "London","City" : "London","Country" : "Canada","IATA" : "YXU","ICAO" : "CYXU","Lat" : "43.033056","Long" : "-81.151111","Alt" : "912","Timezone" : "-5","DST" : "A","TZ" : "America/Toronto"}
{"ID" : "175","Name" : "Abbotsford","City" : "Abbotsford","Country" : "Canada","IATA" : "YXX","ICAO" : "CYXX","Lat" : "49.025278","Long" : "-122.360556","Alt" : "195","Timezone" : "-8","DST" : "A","TZ" : "America/Vancouver"}
{"ID" : "176","Name" : "Whitehorse Intl","City" : "Whitehorse","Country" : "Canada","IATA" : "YXY","ICAO" : "CYXY","Lat" : "60.709553","Long" : "-135.067269","Alt" : "2317","Timezone" : "-8","DST" : "A","TZ" : "America/Vancouver"}
{"ID" : "177","Name" : "North Bay","City" : "North Bay","Country" : "Canada","IATA" : "YYB","ICAO" : "CYYB","Lat" : "46.363611","Long" : "-79.422778","Alt" : "1215","Timezone" : "-5","DST" : "A","TZ" : "America/Toronto"}
{"ID" : "178","Name" : "Calgary Intl","City" : "Calgary","Country" : "Canada","IATA" : "YYC","ICAO" : "CYYC","Lat" : "51.113888","Long" : "-114.020278","Alt" : "3557","Timezone" : "-7","DST" : "A","TZ" : "America/Edmonton"}
{"ID" : "179","Name" : "Smithers","City" : "Smithers","Country" : "Canada","IATA" : "YYD","ICAO" : "CYYD","Lat" : "54.824722","Long" : "-127.182778","Alt" : "1712","Timezone" : "-8","DST" : "A","TZ" : "America/Vancouver"}
{"ID" : "180","Name" : "Fort Nelson","City" : "Fort Nelson","Country" : "Canada","IATA" : "YYE","ICAO" : "CYYE","Lat" : "58.836389","Long" : "-122.596944","Alt" : "1253","Timezone" : "-8","DST" : "A","TZ" : "America/Vancouver"}
{"ID" : "181","Name" : "Penticton","City" : "Penticton","Country" : "Canada","IATA" : "YYF","ICAO" : "CYYF","Lat" : "49.463056","Long" : "-119.602222","Alt" : "1129","Timezone" : "-8","DST" : "A","TZ" : "America/Vancouver"}
{"ID" : "182","Name" : "Charlottetown","City" : "Charlottetown","Country" : "Canada","IATA" : "YYG","ICAO" : "CYYG","Lat" : "46.290001","Long" : "-63.121111","Alt" : "160","Timezone" : "-4","DST" : "A","TZ" : "America/Halifax"}
{"ID" : "183","Name" : "Taloyoak","City" : "Spence Bay","Country" : "Canada","IATA" : "YYH","ICAO" : "CYYH","Lat" : "69.546667","Long" : "-93.576667","Alt" : "92","Timezone" : "-7","DST" : "A","TZ" : "America/Edmonton"}
{"ID" : "184","Name" : "Victoria Intl","City" : "Victoria","Country" : "Canada","IATA" : "YYJ","ICAO" : "CYYJ","Lat" : "48.646944","Long" : "-123.425833","Alt" : "63","Timezone" : "-8","DST" : "A","TZ" : "America/Vancouver"}
{"ID" : "185","Name" : "Lynn Lake","City" : "Lynn Lake","Country" : "Canada","IATA" : "YYL","ICAO" : "CYYL","Lat" : "56.863888","Long" : "-101.07611","Alt" : "1170","Timezone" : "-6","DST" : "A","TZ" : "America/Winnipeg"}
{"ID" : "186","Name" : "Swift Current","City" : "Swift Current","Country" : "Canada","IATA" : "YYN","ICAO" : "CYYN","Lat" : "50.291944","Long" : "-107.690556","Alt" : "2680","Timezone" : "-6","DST" : "N","TZ" : "America/Regina"}
{"ID" : "187","Name" : "Churchill","City" : "Churchill","Country" : "Canada","IATA" : "YYQ","ICAO" : "CYYQ","Lat" : "58.739167","Long" : "-94.065","Alt" : "94","Timezone" : "-6","DST" : "A","TZ" : "America/Winnipeg"}
{"ID" : "188","Name" : "Goose Bay","City" : "Goose Bay","Country" : "Canada","IATA" : "YYR","ICAO" : "CYYR","Lat" : "53.319168","Long" : "-60.425833","Alt" : "160","Timezone" : "-4","DST" : "A","TZ" : "America/Halifax"}
{"ID" : "189","Name" : "St Johns Intl","City" : "St. John's","Country" : "Canada","IATA" : "YYT","ICAO" : "CYYT","Lat" : "47.61861","Long" : "-52.751945","Alt" : "461","Timezone" : "-3.5","DST" : "A","TZ" : "America/St_Johns"}
{"ID" : "190","Name" : "Kapuskasing","City" : "Kapuskasing","Country" : "Canada","IATA" : "YYU","ICAO" : "CYYU","Lat" : "49.413889","Long" : "-82.4675","Alt" : "743","Timezone" : "-5","DST" : "A","TZ" : "America/Toronto"}
{"ID" : "191","Name" : "Armstrong","City" : "Armstrong","Country" : "Canada","IATA" : "YYW","ICAO" : "CYYW","Lat" : "50.290279","Long" : "-88.909721","Alt" : "1058","Timezone" : "-5","DST" : "A","TZ" : "America/Toronto"}
{"ID" : "192","Name" : "Mont Joli","City" : "Mont Joli","Country" : "Canada","IATA" : "YYY","ICAO" : "CYYY","Lat" : "48.608612","Long" : "-68.208056","Alt" : "172","Timezone" : "-5","DST" : "A","TZ" : "America/Toronto"}
{"ID" : "193","Name" : "Lester B Pearson Intl","City" : "Toronto","Country" : "Canada","IATA" : "YYZ","ICAO" : "CYYZ","Lat" : "43.677223","Long" : "-79.630556","Alt" : "569","Timezone" : "-5","DST" : "A","TZ" : "America/Toronto"}
{"ID" : "194","Name" : "Downsview","City" : "Toronto","Country" : "Canada","IATA" : "YZD","ICAO" : "CYZD","Lat" : "43.7425","Long" : "-79.465556","Alt" : "652","Timezone" : "-5","DST" : "A","TZ" : "America/Toronto"}
{"ID" : "195","Name" : "Gore Bay Manitoulin","City" : "Gore Bay","Country" : "Canada","IATA" : "YZE","ICAO" : "CYZE","Lat" : "45.885277","Long" : "-82.567778","Alt" : "635","Timezone" : "-5","DST" : "A","TZ" : "America/Toronto"}
{"ID" : "196","Name" : "Yellowknife","City" : "Yellowknife","Country" : "Canada","IATA" : "YZF","ICAO" : "CYZF","Lat" : "62.462778","Long" : "-114.440278","Alt" : "675","Timezone" : "-7","DST" : "A","TZ" : "America/Edmonton"}
{"ID" : "197","Name" : "Slave Lake","City" : "Slave Lake","Country" : "Canada","IATA" : "YZH","ICAO" : "CYZH","Lat" : "55.293056","Long" : "-114.777222","Alt" : "1912","Timezone" : "-7","DST" : "A","TZ" : "America/Edmonton"}
{"ID" : "198","Name" : "Sandspit","City" : "Sandspit","Country" : "Canada","IATA" : "YZP","ICAO" : "CYZP","Lat" : "53.254333","Long" : "-131.813833","Alt" : "21","Timezone" : "-8","DST" : "A","TZ" : "America/Vancouver"}
{"ID" : "199","Name" : "Chris Hadfield","City" : "Sarnia","Country" : "Canada","IATA" : "YZR","ICAO" : "CYZR","Lat" : "42.999444","Long" : "-82.308889","Alt" : "594","Timezone" : "-5","DST" : "A","TZ" : "America/Toronto"}
{"ID" : "200","Name" : "Port Hardy","City" : "Port Hardy","Country" : "Canada","IATA" : "YZT","ICAO" : "CYZT","Lat" : "50.680556","Long" : "-127.366667","Alt" : "71","Timezone" : "-8","DST" : "A","TZ" : "America/Vancouver"}
{"ID" : "201","Name" : "Whitecourt","City" : "Whitecourt","Country" : "Canada","IATA" : "YZU","ICAO" : "CYZU","Lat" : "54.14389","Long" : "-115.786667","Alt" : "2567","Timezone" : "-7","DST" : "A","TZ" : "America/Edmonton"}
{"ID" : "202","Name" : "Sept Iles","City" : "Sept-iles","Country" : "Canada","IATA" : "YZV","ICAO" : "CYZV","Lat" : "50.223333","Long" : "-66.265556","Alt" : "180","Timezone" : "-5","DST" : "A","TZ" : "America/Toronto"}
{"ID" : "203","Name" : "Teslin","City" : "Teslin","Country" : "Canada","IATA" : "YZW","ICAO" : "CYZW","Lat" : "60.172779","Long" : "-132.742778","Alt" : "2313","Timezone" : "-8","DST" : "A","TZ" : "America/Vancouver"}
{"ID" : "204","Name" : "Greenwood","City" : "Greenwood","Country" : "Canada","IATA" : "YZX","ICAO" : "CYZX","Lat" : "44.984444","Long" : "-64.916944","Alt" : "92","Timezone" : "-4","DST" : "A","TZ" : "America/Halifax"}
{"ID" : "205","Name" : "Faro","City" : "Faro","Country" : "Canada","IATA" : "ZFA","ICAO" : "CZFA","Lat" : "62.2075","Long" : "-133.375833","Alt" : "2351","Timezone" : "-8","DST" : "A","TZ" : "America/Vancouver"}
{"ID" : "206","Name" : "Fort Mcpherson","City" : "Fort Mcpherson","Country" : "Canada","IATA" : "ZFM","ICAO" : "CZFM","Lat" : "67.4075","Long" : "-134.860556","Alt" : "116","Timezone" : "-7","DST" : "A","TZ" : "America/Edmonton"}
{"ID" : "207","Name" : "Blida","City" : "Blida","Country" : "Algeria","IATA" : null,"ICAO" : "DAAB","Lat" : "36.503613","Long" : "2.814167","Alt" : "535","Timezone" : "1","DST" : "N","TZ" : "Africa/Algiers"}
{"ID" : "208","Name" : "Bou Saada","City" : "Bou Saada","Country" : "Algeria","IATA" : null,"ICAO" : "DAAD","Lat" : "35.3325","Long" : "4.206389","Alt" : "1506","Timezone" : "1","DST" : "N","TZ" : "Africa/Algiers"}
{"ID" : "209","Name" : "Soummam","City" : "Bejaja","Country" : "Algeria","IATA" : "BJA","ICAO" : "DAAE","Lat" : "36.711997","Long" : "5.069922","Alt" : "20","Timezone" : "1","DST" : "N","TZ" : "Africa/Algiers"}
{"ID" : "210","Name" : "Houari Boumediene","City" : "Algier","Country" : "Algeria","IATA" : "ALG","ICAO" : "DAAG","Lat" : "36.691014","Long" : "3.215408","Alt" : "82","Timezone" : "1","DST" : "N","TZ" : "Africa/Algiers"}
{"ID" : "211","Name" : "Tiska","City" : "Djanet","Country" : "Algeria","IATA" : "DJG","ICAO" : "DAAJ","Lat" : "24.292767","Long" : "9.452444","Alt" : "3176","Timezone" : "1","DST" : "N","TZ" : "Africa/Algiers"}
{"ID" : "212","Name" : "Boufarik","City" : "Boufarik","Country" : "Algeria","IATA" : "QFD","ICAO" : "DAAK","Lat" : "36.545834","Long" : "2.876111","Alt" : "335","Timezone" : "1","DST" : "N","TZ" : "Africa/Algiers"}
{"ID" : "213","Name" : "Reggane","City" : "Reggan","Country" : "Algeria","IATA" : null,"ICAO" : "DAAN","Lat" : "26.710103","Long" : "0.285647","Alt" : "955","Timezone" : "1","DST" : "N","TZ" : "Africa/Algiers"}
{"ID" : "214","Name" : "Illizi Takhamalt","City" : "Illizi","Country" : "Algeria","IATA" : "VVZ","ICAO" : "DAAP","Lat" : "26.723536","Long" : "8.622653","Alt" : "1778","Timezone" : "1","DST" : "N","TZ" : "Africa/Algiers"}
{"ID" : "215","Name" : "Ain Oussera","City" : "Ain Oussera","Country" : "Algeria","IATA" : null,"ICAO" : "DAAQ","Lat" : "35.525414","Long" : "2.878714","Alt" : "2132","Timezone" : "1","DST" : "N","TZ" : "Africa/Algiers"}
{"ID" : "216","Name" : "Tamanrasset","City" : "Tamanrasset","Country" : "Algeria","IATA" : "TMR","ICAO" : "DAAT","Lat" : "22.811461","Long" : "5.451075","Alt" : "4518","Timezone" : "1","DST" : "N","TZ" : "Africa/Algiers"}
{"ID" : "217","Name" : "Jijel","City" : "Jijel","Country" : "Algeria","IATA" : "GJL","ICAO" : "DAAV","Lat" : "36.795136","Long" : "5.873608","Alt" : "36","Timezone" : "1","DST" : "N","TZ" : "Africa/Algiers"}
{"ID" : "218","Name" : "Mecheria","City" : "Mecheria","Country" : "Algeria","IATA" : null,"ICAO" : "DAAY","Lat" : "33.535853","Long" : "-0.242353","Alt" : "3855","Timezone" : "1","DST" : "N","TZ" : "Africa/Algiers"}
{"ID" : "219","Name" : "Relizane","City" : "Relizane","Country" : "Algeria","IATA" : null,"ICAO" : "DAAZ","Lat" : "35.752239","Long" : "0.626272","Alt" : "282","Timezone" : "1","DST" : "N","TZ" : "Africa/Algiers"}
{"ID" : "220","Name" : "Annaba","City" : "Annaba","Country" : "Algeria","IATA" : "AAE","ICAO" : "DABB","Lat" : "36.822225","Long" : "7.809167","Alt" : "16","Timezone" : "1","DST" : "N","TZ" : "Africa/Algiers"}
{"ID" : "221","Name" : "Mohamed Boudiaf Intl","City" : "Constantine","Country" : "Algeria","IATA" : "CZL","ICAO" : "DABC","Lat" : "36.276028","Long" : "6.620386","Alt" : "2265","Timezone" : "1","DST" : "N","TZ" : "Africa/Algiers"}
{"ID" : "222","Name" : "Cheikh Larbi Tebessi","City" : "Tebessa","Country" : "Algeria","IATA" : "TEE","ICAO" : "DABS","Lat" : "35.431611","Long" : "8.120717","Alt" : "2661","Timezone" : "1","DST" : "N","TZ" : "Africa/Algiers"}
{"ID" : "224","Name" : "Hassi R Mel","City" : "Tilrempt","Country" : "Algeria","IATA" : "HRM","ICAO" : "DAFH","Lat" : "32.930431","Long" : "3.311542","Alt" : "2540","Timezone" : "1","DST" : "N","TZ" : "Africa/Algiers"}
{"ID" : "225","Name" : "Bou Chekif","City" : "Tiaret","Country" : "Algeria","IATA" : "TID","ICAO" : "DAOB","Lat" : "35.341136","Long" : "1.463147","Alt" : "3245","Timezone" : "1","DST" : "N","TZ" : "Africa/Algiers"}
{"ID" : "226","Name" : "Bou Sfer","City" : "Bou Sfer","Country" : "Algeria","IATA" : null,"ICAO" : "DAOE","Lat" : "35.735389","Long" : "-0.805389","Alt" : "187","Timezone" : "1","DST" : "N","TZ" : "Africa/Algiers"}
{"ID" : "227","Name" : "Tindouf","City" : "Tindouf","Country" : "Algeria","IATA" : "TIN","ICAO" : "DAOF","Lat" : "27.700372","Long" : "-8.167103","Alt" : "1453","Timezone" : "1","DST" : "N","TZ" : "Africa/Algiers"}
{"ID" : "228","Name" : "Ech Cheliff","City" : "Ech-cheliff","Country" : "Algeria","IATA" : "QAS","ICAO" : "DAOI","Lat" : "36.212658","Long" : "1.331775","Alt" : "463","Timezone" : "1","DST" : "N","TZ" : "Africa/Algiers"}
{"ID" : "229","Name" : "Tafaraoui","City" : "Oran","Country" : "Algeria","IATA" : "TAF","ICAO" : "DAOL","Lat" : "35.542444","Long" : "-0.532278","Alt" : "367","Timezone" : "1","DST" : "N","TZ" : "Africa/Algiers"}
{"ID" : "230","Name" : "Zenata","City" : "Tlemcen","Country" : "Algeria","IATA" : "TLM","ICAO" : "DAON","Lat" : "35.016667","Long" : "-1.45","Alt" : "814","Timezone" : "1","DST" : "N","TZ" : "Africa/Algiers"}
{"ID" : "231","Name" : "Es Senia","City" : "Oran","Country" : "Algeria","IATA" : "ORN","ICAO" : "DAOO","Lat" : "35.623858","Long" : "-0.621183","Alt" : "295","Timezone" : "1","DST" : "N","TZ" : "Africa/Algiers"}
{"ID" : "232","Name" : "Sidi Bel Abbes","City" : "Sidi Bel Abbes","Country" : "Algeria","IATA" : null,"ICAO" : "DAOS","Lat" : "35.171775","Long" : "-0.593275","Alt" : "1614","Timezone" : "1","DST" : "N","TZ" : "Africa/Algiers"}
{"ID" : "233","Name" : "Ghriss","City" : "Ghriss","Country" : "Algeria","IATA" : "MUW","ICAO" : "DAOV","Lat" : "35.207725","Long" : "0.147142","Alt" : "1686","Timezone" : "1","DST" : "N","TZ" : "Africa/Algiers"}
{"ID" : "234","Name" : "Touat Cheikh Sidi Mohamed Belkebir","City" : "Adrar","Country" : "Algeria","IATA" : "AZR","ICAO" : "DAUA","Lat" : "27.837589","Long" : "-0.186414","Alt" : "919","Timezone" : "1","DST" : "N","TZ" : "Africa/Algiers"}
{"ID" : "235","Name" : "Biskra","City" : "Biskra","Country" : "Algeria","IATA" : "BSK","ICAO" : "DAUB","Lat" : "34.793289","Long" : "5.738231","Alt" : "289","Timezone" : "1","DST" : "N","TZ" : "Africa/Algiers"}
{"ID" : "236","Name" : "El Golea","City" : "El Golea","Country" : "Algeria","IATA" : "ELG","ICAO" : "DAUE","Lat" : "30.571294","Long" : "2.859586","Alt" : "1306","Timezone" : "1","DST" : "N","TZ" : "Africa/Algiers"}
{"ID" : "237","Name" : "Noumerat","City" : "Ghardaia","Country" : "Algeria","IATA" : "GHA","ICAO" : "DAUG","Lat" : "32.384106","Long" : "3.794114","Alt" : "1512","Timezone" : "1","DST" : "N","TZ" : "Africa/Algiers"}
{"ID" : "238","Name" : "Oued Irara","City" : "Hassi Messaoud","Country" : "Algeria","IATA" : "HME","ICAO" : "DAUH","Lat" : "31.672972","Long" : "6.140444","Alt" : "463","Timezone" : "1","DST" : "N","TZ" : "Africa/Algiers"}
{"ID" : "239","Name" : "In Salah","City" : "In Salah","Country" : "Algeria","IATA" : "INZ","ICAO" : "DAUI","Lat" : "27.251022","Long" : "2.512017","Alt" : "896","Timezone" : "1","DST" : "N","TZ" : "Africa/Algiers"}
{"ID" : "240","Name" : "Sidi Mahdi","City" : "Touggourt","Country" : "Algeria","IATA" : "TGR","ICAO" : "DAUK","Lat" : "33.067803","Long" : "6.088672","Alt" : "279","Timezone" : "1","DST" : "N","TZ" : "Africa/Algiers"}
{"ID" : "241","Name" : "Laghouat","City" : "Laghouat","Country" : "Algeria","IATA" : "LOO","ICAO" : "DAUL","Lat" : "33.764383","Long" : "2.928344","Alt" : "2510","Timezone" : "1","DST" : "N","TZ" : "Africa/Algiers"}
{"ID" : "242","Name" : "Timimoun","City" : "Timimoun","Country" : "Algeria","IATA" : "TMX","ICAO" : "DAUT","Lat" : "29.237119","Long" : "0.276033","Alt" : "1027","Timezone" : "1","DST" : "N","TZ" : "Africa/Algiers"}
{"ID" : "243","Name" : "Ouargla","City" : "Ouargla","Country" : "Algeria","IATA" : "OGX","ICAO" : "DAUU","Lat" : "31.917223","Long" : "5.412778","Alt" : "492","Timezone" : "1","DST" : "N","TZ" : "Africa/Algiers"}
{"ID" : "244","Name" : "In Amenas","City" : "Zarzaitine","Country" : "Algeria","IATA" : "IAM","ICAO" : "DAUZ","Lat" : "28.05155","Long" : "9.642911","Alt" : "1847","Timezone" : "1","DST" : "N","TZ" : "Africa/Algiers"}
{"ID" : "245","Name" : "Cadjehoun","City" : "Cotonou","Country" : "Benin","IATA" : "COO","ICAO" : "DBBB","Lat" : "6.357228","Long" : "2.384353","Alt" : "19","Timezone" : "1","DST" : "N","TZ" : "Africa/Porto-Novo"}
{"ID" : "246","Name" : "Ouagadougou","City" : "Ouagadougou","Country" : "Burkina Faso","IATA" : "OUA","ICAO" : "DFFD","Lat" : "12.353194","Long" : "-1.512417","Alt" : "1037","Timezone" : "0","DST" : "N","TZ" : "Africa/Ouagadougou"}
{"ID" : "247","Name" : "Bobo Dioulasso","City" : "Bobo-dioulasso","Country" : "Burkina Faso","IATA" : "BOY","ICAO" : "DFOO","Lat" : "11.160056","Long" : "-4.330969","Alt" : "1511","Timezone" : "0","DST" : "N","TZ" : "Africa/Ouagadougou"}
{"ID" : "248","Name" : "Kotoka Intl","City" : "Accra","Country" : "Ghana","IATA" : "ACC","ICAO" : "DGAA","Lat" : "5.605186","Long" : "-0.166786","Alt" : "205","Timezone" : "0","DST" : "N","TZ" : "Africa/Accra"}
{"ID" : "249","Name" : "Tamale","City" : "Tamale","Country" : "Ghana","IATA" : "TML","ICAO" : "DGLE","Lat" : "9.557192","Long" : "-0.863214","Alt" : "553","Timezone" : "0","DST" : "N","TZ" : "Africa/Accra"}
{"ID" : "250","Name" : "Wa","City" : "Wa","Country" : "Ghana","IATA" : null,"ICAO" : "DGLW","Lat" : "10.082664","Long" : "-2.507694","Alt" : "1060","Timezone" : "0","DST" : "N","TZ" : "Africa/Accra"}
{"ID" : "251","Name" : "Sunyani","City" : "Sunyani","Country" : "Ghana","IATA" : "NYI","ICAO" : "DGSN","Lat" : "7.361828","Long" : "-2.328756","Alt" : "1014","Timezone" : "0","DST" : "N","TZ" : "Africa/Accra"}
{"ID" : "252","Name" : "Takoradi","City" : "Takoradi","Country" : "Ghana","IATA" : "TKD","ICAO" : "DGTK","Lat" : "4.896056","Long" : "-1.774756","Alt" : "21","Timezone" : "0","DST" : "N","TZ" : "Africa/Accra"}
{"ID" : "253","Name" : "Abidjan Felix Houphouet Boigny Intl","City" : "Abidjan","Country" : "Cote d'Ivoire","IATA" : "ABJ","ICAO" : "DIAP","Lat" : "5.261386","Long" : "-3.926294","Alt" : "21","Timezone" : "0","DST" : "N","TZ" : "Africa/Abidjan"}
{"ID" : "254","Name" : "Bouake","City" : "Bouake","Country" : "Cote d'Ivoire","IATA" : "BYK","ICAO" : "DIBK","Lat" : "7.7388","Long" : "-5.073667","Alt" : "1230","Timezone" : "0","DST" : "N","TZ" : "Africa/Abidjan"}
{"ID" : "255","Name" : "Daloa","City" : "Daloa","Country" : "Cote d'Ivoire","IATA" : "DJO","ICAO" : "DIDL","Lat" : "6.792808","Long" : "-6.473189","Alt" : "823","Timezone" : "0","DST" : "N","TZ" : "Africa/Abidjan"}
{"ID" : "256","Name" : "Korhogo","City" : "Korhogo","Country" : "Cote d'Ivoire","IATA" : "HGO","ICAO" : "DIKO","Lat" : "9.387183","Long" : "-5.556664","Alt" : "1214","Timezone" : "0","DST" : "N","TZ" : "Africa/Abidjan"}
{"ID" : "257","Name" : "Man","City" : "Man","Country" : "Cote d'Ivoire","IATA" : "MJC","ICAO" : "DIMN","Lat" : "7.272069","Long" : "-7.587364","Alt" : "1089","Timezone" : "0","DST" : "N","TZ" : "Africa/Abidjan"}
{"ID" : "258","Name" : "San Pedro","City" : "San Pedro","Country" : "Cote d'Ivoire","IATA" : "SPY","ICAO" : "DISP","Lat" : "4.746717","Long" : "-6.660817","Alt" : "26","Timezone" : "0","DST" : "N","TZ" : "Africa/Abidjan"}
{"ID" : "259","Name" : "Yamoussoukro","City" : "Yamoussoukro","Country" : "Cote d'Ivoire","IATA" : "ASK","ICAO" : "DIYO","Lat" : "6.903167","Long" : "-5.365581","Alt" : "699","Timezone" : "0","DST" : "N","TZ" : "Africa/Abidjan"}
{"ID" : "260","Name" : "Nnamdi Azikiwe Intl","City" : "Abuja","Country" : "Nigeria","IATA" : "ABV","ICAO" : "DNAA","Lat" : "9.006792","Long" : "7.263172","Alt" : "1123","Timezone" : "1","DST" : "N","TZ" : "Africa/Lagos"}
{"ID" : "261","Name" : "Akure","City" : "Akure","Country" : "Nigeria","IATA" : "AKR","ICAO" : "DNAK","Lat" : "7.246739","Long" : "5.301008","Alt" : "1100","Timezone" : "1","DST" : "N","TZ" : "Africa/Lagos"}
{"ID" : "262","Name" : "Benin","City" : "Benin","Country" : "Nigeria","IATA" : "BNI","ICAO" : "DNBE","Lat" : "6.316981","Long" : "5.599503","Alt" : "258","Timezone" : "1","DST" : "N","TZ" : "Africa/Lagos"}
{"ID" : "263","Name" : "Calabar","City" : "Calabar","Country" : "Nigeria","IATA" : "CBQ","ICAO" : "DNCA","Lat" : "4.976019","Long" : "8.347197","Alt" : "210","Timezone" : "1","DST" : "N","TZ" : "Africa/Lagos"}
{"ID" : "264","Name" : "Enugu","City" : "Enugu","Country" : "Nigeria","IATA" : "ENU","ICAO" : "DNEN","Lat" : "6.474272","Long" : "7.561961","Alt" : "466","Timezone" : "1","DST" : "N","TZ" : "Africa/Lagos"}
{"ID" : "265","Name" : "Gusau","City" : "Gusau","Country" : "Nigeria","IATA" : "QUS","ICAO" : "DNGU","Lat" : "12.171667","Long" : "6.696111","Alt" : "1520","Timezone" : "1","DST" : "N","TZ" : "Africa/Lagos"}
{"ID" : "266","Name" : "Ibadan","City" : "Ibadan","Country" : "Nigeria","IATA" : "IBA","ICAO" : "DNIB","Lat" : "7.362458","Long" : "3.978333","Alt" : "725","Timezone" : "1","DST" : "N","TZ" : "Africa/Lagos"}
{"ID" : "267","Name" : "Ilorin","City" : "Ilorin","Country" : "Nigeria","IATA" : "ILR","ICAO" : "DNIL","Lat" : "8.440211","Long" : "4.493919","Alt" : "1126","Timezone" : "1","DST" : "N","TZ" : "Africa/Lagos"}
{"ID" : "268","Name" : "Yakubu Gowon","City" : "Jos","Country" : "Nigeria","IATA" : "JOS","ICAO" : "DNJO","Lat" : "9.639828","Long" : "8.86905","Alt" : "4232","Timezone" : "1","DST" : "N","TZ" : "Africa/Lagos"}
{"ID" : "269","Name" : "Kaduna","City" : "Kaduna","Country" : "Nigeria","IATA" : "KAD","ICAO" : "DNKA","Lat" : "10.696025","Long" : "7.320114","Alt" : "2073","Timezone" : "1","DST" : "N","TZ" : "Africa/Lagos"}
{"ID" : "270","Name" : "Mallam Aminu Intl","City" : "Kano","Country" : "Nigeria","IATA" : "KAN","ICAO" : "DNKN","Lat" : "12.047589","Long" : "8.524622","Alt" : "1562","Timezone" : "1","DST" : "N","TZ" : "Africa/Lagos"}
{"ID" : "271","Name" : "Maiduguri","City" : "Maiduguri","Country" : "Nigeria","IATA" : "MIU","ICAO" : "DNMA","Lat" : "11.855347","Long" : "13.08095","Alt" : "1099","Timezone" : "1","DST" : "N","TZ" : "Africa/Lagos"}
{"ID" : "272","Name" : "Makurdi","City" : "Makurdi","Country" : "Nigeria","IATA" : "MDI","ICAO" : "DNMK","Lat" : "7.703883","Long" : "8.613939","Alt" : "371","Timezone" : "1","DST" : "N","TZ" : "Africa/Lagos"}
{"ID" : "273","Name" : "Murtala Muhammed","City" : "Lagos","Country" : "Nigeria","IATA" : "LOS","ICAO" : "DNMM","Lat" : "6.577369","Long" : "3.321156","Alt" : "135","Timezone" : "1","DST" : "N","TZ" : "Africa/Lagos"}
{"ID" : "274","Name" : "Minna New","City" : "Minna","Country" : "Nigeria","IATA" : "MXJ","ICAO" : "DNMN","Lat" : "9.652172","Long" : "6.462256","Alt" : "834","Timezone" : "1","DST" : "N","TZ" : "Africa/Lagos"}
{"ID" : "275","Name" : "Port Harcourt Intl","City" : "Port Hartcourt","Country" : "Nigeria","IATA" : "PHC","ICAO" : "DNPO","Lat" : "5.015494","Long" : "6.949594","Alt" : "87","Timezone" : "1","DST" : "N","TZ" : "Africa/Lagos"}
{"ID" : "276","Name" : "Sadiq Abubakar Iii Intl","City" : "Sokoto","Country" : "Nigeria","IATA" : "SKO","ICAO" : "DNSO","Lat" : "12.916322","Long" : "5.207189","Alt" : "1010","Timezone" : "1","DST" : "N","TZ" : "Africa/Lagos"}
{"ID" : "277","Name" : "Yola","City" : "Yola","Country" : "Nigeria","IATA" : "YOL","ICAO" : "DNYO","Lat" : "9.257553","Long" : "12.430422","Alt" : "599","Timezone" : "1","DST" : "N","TZ" : "Africa/Lagos"}
{"ID" : "278","Name" : "Zaria","City" : "Zaria","Country" : "Nigeria","IATA" : "ZAR","ICAO" : "DNZA","Lat" : "11.130192","Long" : "7.685806","Alt" : "2170","Timezone" : "1","DST" : "N","TZ" : "Africa/Lagos"}
{"ID" : "279","Name" : "Maradi","City" : "Maradi","Country" : "Niger","IATA" : "MFQ","ICAO" : "DRRM","Lat" : "13.502531","Long" : "7.126753","Alt" : "1240","Timezone" : "1","DST" : "N","TZ" : "Africa/Niamey"}
{"ID" : "280","Name" : "Diori Hamani","City" : "Niamey","Country" : "Niger","IATA" : "NIM","ICAO" : "DRRN","Lat" : "13.481547","Long" : "2.183614","Alt" : "732","Timezone" : "1","DST" : "N","TZ" : "Africa/Niamey"}
{"ID" : "281","Name" : "Tahoua","City" : "Tahoua","Country" : "Niger","IATA" : "THZ","ICAO" : "DRRT","Lat" : "14.875658","Long" : "5.265358","Alt" : "1266","Timezone" : "1","DST" : "N","TZ" : "Africa/Niamey"}
{"ID" : "282","Name" : "Manu Dayak","City" : "Agadez","Country" : "Niger","IATA" : "AJY","ICAO" : "DRZA","Lat" : "16.965997","Long" : "8.000114","Alt" : "1657","Timezone" : "1","DST" : "N","TZ" : "Africa/Niamey"}
{"ID" : "283","Name" : "Dirkou","City" : "Dirkou","Country" : "Niger","IATA" : null,"ICAO" : "DRZD","Lat" : "18.968703","Long" : "12.86865","Alt" : "1273","Timezone" : "1","DST" : "N","TZ" : "Africa/Niamey"}
{"ID" : "284","Name" : "Diffa","City" : "Diffa","Country" : "Niger","IATA" : null,"ICAO" : "DRZF","Lat" : "13.372894","Long" : "12.626686","Alt" : "994","Timezone" : "1","DST" : "N","TZ" : "Africa/Niamey"}
{"ID" : "285","Name" : "Zinder","City" : "Zinder","Country" : "Niger","IATA" : "ZND","ICAO" : "DRZR","Lat" : "13.778997","Long" : "8.983761","Alt" : "1516","Timezone" : "1","DST" : "N","TZ" : "Africa/Niamey"}
{"ID" : "286","Name" : "Habib Bourguiba Intl","City" : "Monastir","Country" : "Tunisia","IATA" : "MIR","ICAO" : "DTMB","Lat" : "35.758056","Long" : "10.754722","Alt" : "9","Timezone" : "1","DST" : "E","TZ" : "Africa/Tunis"}
{"ID" : "287","Name" : "Carthage","City" : "Tunis","Country" : "Tunisia","IATA" : "TUN","ICAO" : "DTTA","Lat" : "36.851033","Long" : "10.227217","Alt" : "22","Timezone" : "1","DST" : "E","TZ" : "Africa/Tunis"}
{"ID" : "288","Name" : "Sidi Ahmed Air Base","City" : "Bizerte","Country" : "Tunisia","IATA" : null,"ICAO" : "DTTB","Lat" : "37.245447","Long" : "9.791453","Alt" : "20","Timezone" : "1","DST" : "E","TZ" : "Africa/Tunis"}
{"ID" : "289","Name" : "Remada","City" : "Remada","Country" : "Tunisia","IATA" : null,"ICAO" : "DTTD","Lat" : "32.306156","Long" : "10.382108","Alt" : "1004","Timezone" : "1","DST" : "E","TZ" : "Africa/Tunis"}
{"ID" : "290","Name" : "Gafsa","City" : "Gafsa","Country" : "Tunisia","IATA" : "GAF","ICAO" : "DTTF","Lat" : "34.422022","Long" : "8.822503","Alt" : "1060","Timezone" : "1","DST" : "E","TZ" : "Africa/Tunis"}
{"ID" : "291","Name" : "Gabes","City" : "Gabes","Country" : "Tunisia","IATA" : "GAE","ICAO" : "DTTG","Lat" : "33.876919","Long" : "10.103333","Alt" : "26","Timezone" : "1","DST" : "E","TZ" : "Africa/Tunis"}
{"ID" : "292","Name" : "Borj El Amri","City" : "Bordj El Amri","Country" : "Tunisia","IATA" : null,"ICAO" : "DTTI","Lat" : "36.721339","Long" : "9.943147","Alt" : "108","Timezone" : "1","DST" : "E","TZ" : "Africa/Tunis"}
{"ID" : "293","Name" : "Zarzis","City" : "Djerba","Country" : "Tunisia","IATA" : "DJE","ICAO" : "DTTJ","Lat" : "33.875031","Long" : "10.775461","Alt" : "19","Timezone" : "1","DST" : "E","TZ" : "Africa/Tunis"}
{"ID" : "294","Name" : "El Borma","City" : "El Borma","Country" : "Tunisia","IATA" : "EBM","ICAO" : "DTTR","Lat" : "31.704281","Long" : "9.254619","Alt" : "827","Timezone" : "1","DST" : "E","TZ" : "Africa/Tunis"}
{"ID" : "295","Name" : "Thyna","City" : "Sfax","Country" : "Tunisia","IATA" : "SFA","ICAO" : "DTTX","Lat" : "34.717953","Long" : "10.690972","Alt" : "85","Timezone" : "1","DST" : "E","TZ" : "Africa/Tunis"}
{"ID" : "296","Name" : "Nefta","City" : "Tozeur","Country" : "Tunisia","IATA" : "TOE","ICAO" : "DTTZ","Lat" : "33.939722","Long" : "8.110556","Alt" : "287","Timezone" : "1","DST" : "E","TZ" : "Africa/Tunis"}
{"ID" : "297","Name" : "Niamtougou International","City" : "Niatougou","Country" : "Togo","IATA" : "LRL","ICAO" : "DXNG","Lat" : "9.767333","Long" : "1.09125","Alt" : "1515","Timezone" : "0","DST" : "N","TZ" : "Africa/Lome"}
{"ID" : "298","Name" : "Gnassingbe Eyadema Intl","City" : "Lome","Country" : "Togo","IATA" : "LFW","ICAO" : "DXXX","Lat" : "6.165611","Long" : "1.254511","Alt" : "72","Timezone" : "0","DST" : "N","TZ" : "Africa/Lome"}
{"ID" : "299","Name" : "Deurne","City" : "Antwerp","Country" : "Belgium","IATA" : "ANR","ICAO" : "EBAW","Lat" : "51.189444","Long" : "4.460278","Alt" : "39","Timezone" : "1","DST" : "E","TZ" : "Europe/Brussels"}
{"ID" : "300","Name" : "Beauvechain","City" : "Beauvechain","Country" : "Belgium","IATA" : null,"ICAO" : "EBBE","Lat" : "50.75861","Long" : "4.768333","Alt" : "370","Timezone" : "1","DST" : "E","TZ" : "Europe/Brussels"}
{"ID" : "301","Name" : "Kleine Brogel","City" : "Kleine Brogel","Country" : "Belgium","IATA" : null,"ICAO" : "EBBL","Lat" : "51.168333","Long" : "5.47","Alt" : "200","Timezone" : "1","DST" : "E","TZ" : "Europe/Brussels"}
{"ID" : "302","Name" : "Brussels Natl","City" : "Brussels","Country" : "Belgium","IATA" : "BRU","ICAO" : "EBBR","Lat" : "50.901389","Long" : "4.484444","Alt" : "184","Timezone" : "1","DST" : "E","TZ" : "Europe/Brussels"}
{"ID" : "303","Name" : "Bertrix","City" : "Bertrix","Country" : "Belgium","IATA" : null,"ICAO" : "EBBX","Lat" : "49.891667","Long" : "5.223889","Alt" : "1514","Timezone" : "1","DST" : "E","TZ" : "Europe/Brussels"}
{"ID" : "304","Name" : "Brussels South","City" : "Charleroi","Country" : "Belgium","IATA" : "CRL","ICAO" : "EBCI","Lat" : "50.459197","Long" : "4.453817","Alt" : "614","Timezone" : "1","DST" : "E","TZ" : "Europe/Brussels"}
{"ID" : "305","Name" : "Chievres Ab","City" : "Chievres","Country" : "Belgium","IATA" : null,"ICAO" : "EBCV","Lat" : "50.575833","Long" : "3.831","Alt" : "193","Timezone" : "1","DST" : "E","TZ" : "Europe/Brussels"}
{"ID" : "306","Name" : "Koksijde","City" : "Koksijde","Country" : "Belgium","IATA" : null,"ICAO" : "EBFN","Lat" : "51.090278","Long" : "2.652778","Alt" : "20","Timezone" : "1","DST" : "E","TZ" : "Europe/Brussels"}
{"ID" : "307","Name" : "Florennes","City" : "Florennes","Country" : "Belgium","IATA" : null,"ICAO" : "EBFS","Lat" : "50.243333","Long" : "4.645833","Alt" : "935","Timezone" : "1","DST" : "E","TZ" : "Europe/Brussels"}
{"ID" : "308","Name" : "Wevelgem","City" : "Kortrijk-vevelgem","Country" : "Belgium","IATA" : "QKT","ICAO" : "EBKT","Lat" : "50.817222","Long" : "3.204722","Alt" : "64","Timezone" : "1","DST" : "E","TZ" : "Europe/Brussels"}
{"ID" : "309","Name" : "Liege","City" : "Liege","Country" : "Belgium","IATA" : "LGG","ICAO" : "EBLG","Lat" : "50.637417","Long" : "5.443222","Alt" : "659","Timezone" : "1","DST" : "E","TZ" : "Europe/Brussels"}
{"ID" : "310","Name" : "Oostende","City" : "Ostend","Country" : "Belgium","IATA" : "OST","ICAO" : "EBOS","Lat" : "51.198889","Long" : "2.862222","Alt" : "13","Timezone" : "1","DST" : "E","TZ" : "Europe/Brussels"}
{"ID" : "311","Name" : "Zutendaal","City" : "Zutendaal","Country" : "Belgium","IATA" : null,"ICAO" : "EBSL","Lat" : "50.9475","Long" : "5.590556","Alt" : "312","Timezone" : "1","DST" : "E","TZ" : "Europe/Brussels"}
{"ID" : "312","Name" : "Sint Truiden","City" : "Sint-truiden","Country" : "Belgium","IATA" : null,"ICAO" : "EBST","Lat" : "50.791944","Long" : "5.201667","Alt" : "246","Timezone" : "1","DST" : "E","TZ" : "Europe/Brussels"}
{"ID" : "313","Name" : "Saint Hubert Mil","City" : "St.-hubert","Country" : "Belgium","IATA" : null,"ICAO" : "EBSU","Lat" : "50.035833","Long" : "5.404167","Alt" : "1930","Timezone" : "1","DST" : "E","TZ" : "Europe/Brussels"}
{"ID" : "314","Name" : "Ursel","City" : "Ursel","Country" : "Belgium","IATA" : null,"ICAO" : "EBUL","Lat" : "51.144133","Long" : "3.474361","Alt" : "95","Timezone" : "1","DST" : "E","TZ" : "Europe/Brussels"}
{"ID" : "315","Name" : "Weelde","City" : "Weelde","Country" : "Belgium","IATA" : null,"ICAO" : "EBWE","Lat" : "51.394783","Long" : "4.960194","Alt" : "105","Timezone" : "1","DST" : "E","TZ" : "Europe/Brussels"}
{"ID" : "316","Name" : "Zoersel","City" : "Zoersel","Country" : "Belgium","IATA" : null,"ICAO" : "EBZR","Lat" : "51.264722","Long" : "4.753333","Alt" : "53","Timezone" : "1","DST" : "E","TZ" : "Europe/Brussels"}
{"ID" : "317","Name" : "Bautzen","City" : "Bautzen","Country" : "Germany","IATA" : "BBJ","ICAO" : "EDAB","Lat" : "51.193531","Long" : "14.519747","Alt" : "568","Timezone" : "1","DST" : "E","TZ" : "Europe/Berlin"}
{"ID" : "318","Name" : "Altenburg Nobitz","City" : "Altenburg","Country" : "Germany","IATA" : "AOC","ICAO" : "EDAC","Lat" : "50.981817","Long" : "12.506361","Alt" : "640","Timezone" : "1","DST" : "E","TZ" : "Europe/Berlin"}
{"ID" : "319","Name" : "Dessau","City" : "Dessau","Country" : "Germany","IATA" : null,"ICAO" : "EDAD","Lat" : "51.831828","Long" : "12.184033","Alt" : "187","Timezone" : "1","DST" : "E","TZ" : "Europe/Berlin"}
{"ID" : "320","Name" : "Eisenhuttenstadt","City" : "Eisenhuettenstadt","Country" : "Germany","IATA" : null,"ICAO" : "EDAE","Lat" : "52.197333","Long" : "14.585667","Alt" : "149","Timezone" : "1","DST" : "E","TZ" : "Europe/Berlin"}
{"ID" : "6891","Name" : "Putnam County Airport","City" : "Greencastle","Country" : "United States","IATA" : "4I7","ICAO" : "\\N","Lat" : "39.6335556","Long" : "-86.8138056","Alt" : "842","Timezone" : "-5","DST" : "U","TZ" : "America/New_York"}
{"ID" : "322","Name" : "Grossenhain","City" : "Suhl","Country" : "Germany","IATA" : null,"ICAO" : "EDAK","Lat" : "51.308111","Long" : "13.554973","Alt" : "417","Timezone" : "1","DST" : "E","TZ" : "Europe/Berlin"}
{"ID" : "323","Name" : "Merseburg","City" : "Muehlhausen","Country" : "Germany","IATA" : null,"ICAO" : "EDAM","Lat" : "51.363","Long" : "11.940833","Alt" : "340","Timezone" : "1","DST" : "E","TZ" : "Europe/Berlin"}
{"ID" : "324","Name" : "Halle Oppin","City" : "Halle","Country" : "Germany","IATA" : null,"ICAO" : "EDAQ","Lat" : "51.552","Long" : "12.052667","Alt" : "347","Timezone" : "1","DST" : "E","TZ" : "Europe/Berlin"}
{"ID" : "325","Name" : "Riesa Gohlis","City" : "Riesa","Country" : "Germany","IATA" : null,"ICAO" : "EDAU","Lat" : "51.2935","Long" : "13.356","Alt" : "322","Timezone" : "1","DST" : "E","TZ" : "Europe/Berlin"}
{"ID" : "326","Name" : "Rechlin Larz","City" : "Rechlin-laerz","Country" : "Germany","IATA" : null,"ICAO" : "EDAX","Lat" : "53.306417","Long" : "12.753139","Alt" : "220","Timezone" : "1","DST" : "E","TZ" : "Europe/Berlin"}
{"ID" : "327","Name" : "Strausberg","City" : "Strausberg","Country" : "Germany","IATA" : null,"ICAO" : "EDAY","Lat" : "52.579978","Long" : "13.915683","Alt" : "263","Timezone" : "1","DST" : "E","TZ" : "Europe/Berlin"}
{"ID" : "328","Name" : "Schonhagen","City" : "Schoenhagen","Country" : "Germany","IATA" : null,"ICAO" : "EDAZ","Lat" : "52.203258","Long" : "13.158408","Alt" : "131","Timezone" : "1","DST" : "E","TZ" : "Europe/Berlin"}
{"ID" : "329","Name" : "Barth","City" : "Barth","Country" : "Germany","IATA" : "BBH","ICAO" : "EDBH","Lat" : "54.33754","Long" : "12.699705","Alt" : "23","Timezone" : "1","DST" : "E","TZ" : "Europe/Berlin"}
{"ID" : "330","Name" : "Jena Schongleina","City" : "Jena","Country" : "Germany","IATA" : null,"ICAO" : "EDBJ","Lat" : "50.915161","Long" : "11.714519","Alt" : "1228","Timezone" : "1","DST" : "E","TZ" : "Europe/Berlin"}
{"ID" : "331","Name" : "Kyritz","City" : "Kyritz","Country" : "Germany","IATA" : null,"ICAO" : "EDBK","Lat" : "52.918833","Long" : "12.425333","Alt" : "130","Timezone" : "1","DST" : "E","TZ" : "Europe/Berlin"}
{"ID" : "332","Name" : "Magdeburg","City" : "Magdeburg","Country" : "Germany","IATA" : null,"ICAO" : "EDBM","Lat" : "52.073658","Long" : "11.626467","Alt" : "268","Timezone" : "1","DST" : "E","TZ" : "Europe/Berlin"}
{"ID" : "333","Name" : "Rothenburg Gorlitz","City" : "Rothenburg/ol","Country" : "Germany","IATA" : null,"ICAO" : "EDBR","Lat" : "51.363167","Long" : "14.95","Alt" : "517","Timezone" : "1","DST" : "E","TZ" : "Europe/Berlin"}
{"ID" : "334","Name" : "Anklam","City" : "Anklam","Country" : "Germany","IATA" : null,"ICAO" : "EDCA","Lat" : "53.8327","Long" : "13.669131","Alt" : "18","Timezone" : "1","DST" : "E","TZ" : "Europe/Berlin"}
{"ID" : "335","Name" : "Cottbus Drewitz","City" : "Cottbus","Country" : "Germany","IATA" : null,"ICAO" : "EDCD","Lat" : "51.889475","Long" : "14.531986","Alt" : "274","Timezone" : "1","DST" : "E","TZ" : "Europe/Berlin"}
{"ID" : "336","Name" : "Kamenz","City" : "Kamenz","Country" : "Germany","IATA" : null,"ICAO" : "EDCM","Lat" : "51.29625","Long" : "14.129","Alt" : "495","Timezone" : "1","DST" : "E","TZ" : "Europe/Berlin"}
{"ID" : "337","Name" : "Schonefeld","City" : "Berlin","Country" : "Germany","IATA" : "SXF","ICAO" : "EDDB","Lat" : "52.380001","Long" : "13.5225","Alt" : "157","Timezone" : "1","DST" : "E","TZ" : "Europe/Berlin"}
{"ID" : "338","Name" : "Dresden","City" : "Dresden","Country" : "Germany","IATA" : "DRS","ICAO" : "EDDC","Lat" : "51.132767","Long" : "13.767161","Alt" : "755","Timezone" : "1","DST" : "E","TZ" : "Europe/Berlin"}
{"ID" : "339","Name" : "Erfurt","City" : "Erfurt","Country" : "Germany","IATA" : "ERF","ICAO" : "EDDE","Lat" : "50.979811","Long" : "10.958106","Alt" : "1036","Timezone" : "1","DST" : "E","TZ" : "Europe/Berlin"}
{"ID" : "340","Name" : "Frankfurt Main","City" : "Frankfurt","Country" : "Germany","IATA" : "FRA","ICAO" : "EDDF","Lat" : "50.026421","Long" : "8.543125","Alt" : "364","Timezone" : "1","DST" : "E","TZ" : "Europe/Berlin"}
{"ID" : "341","Name" : "Munster Osnabruck","City" : "Munster","Country" : "Germany","IATA" : "FMO","ICAO" : "EDDG","Lat" : "52.134642","Long" : "7.684831","Alt" : "160","Timezone" : "1","DST" : "E","TZ" : "Europe/Berlin"}
{"ID" : "342","Name" : "Hamburg","City" : "Hamburg","Country" : "Germany","IATA" : "HAM","ICAO" : "EDDH","Lat" : "53.630389","Long" : "9.988228","Alt" : "53","Timezone" : "1","DST" : "E","TZ" : "Europe/Berlin"}
{"ID" : "343","Name" : "Tempelhof","City" : "Berlin","Country" : "Germany","IATA" : "THF","ICAO" : "EDDI","Lat" : "52.473025","Long" : "13.403944","Alt" : "167","Timezone" : "1","DST" : "E","TZ" : "Europe/Berlin"}
{"ID" : "344","Name" : "Koln Bonn","City" : "Cologne","Country" : "Germany","IATA" : "CGN","ICAO" : "EDDK","Lat" : "50.865917","Long" : "7.142744","Alt" : "302","Timezone" : "1","DST" : "E","TZ" : "Europe/Berlin"}
{"ID" : "345","Name" : "Dusseldorf","City" : "Duesseldorf","Country" : "Germany","IATA" : "DUS","ICAO" : "EDDL","Lat" : "51.289453","Long" : "6.766775","Alt" : "147","Timezone" : "1","DST" : "E","TZ" : "Europe/Berlin"}
{"ID" : "346","Name" : "Franz Josef Strauss","City" : "Munich","Country" : "Germany","IATA" : "MUC","ICAO" : "EDDM","Lat" : "48.353783","Long" : "11.786086","Alt" : "1487","Timezone" : "1","DST" : "E","TZ" : "Europe/Berlin"}
{"ID" : "347","Name" : "Nurnberg","City" : "Nuernberg","Country" : "Germany","IATA" : "NUE","ICAO" : "EDDN","Lat" : "49.4987","Long" : "11.066897","Alt" : "1046","Timezone" : "1","DST" : "E","TZ" : "Europe/Berlin"}
{"ID" : "348","Name" : "Leipzig Halle","City" : "Leipzig","Country" : "Germany","IATA" : "LEJ","ICAO" : "EDDP","Lat" : "51.432447","Long" : "12.241633","Alt" : "465","Timezone" : "1","DST" : "E","TZ" : "Europe/Berlin"}
{"ID" : "349","Name" : "Saarbrucken","City" : "Saarbruecken","Country" : "Germany","IATA" : "SCN","ICAO" : "EDDR","Lat" : "49.214553","Long" : "7.109508","Alt" : "1058","Timezone" : "1","DST" : "E","TZ" : "Europe/Berlin"}
{"ID" : "350","Name" : "Stuttgart","City" : "Stuttgart","Country" : "Germany","IATA" : "STR","ICAO" : "EDDS","Lat" : "48.689878","Long" : "9.221964","Alt" : "1276","Timezone" : "1","DST" : "E","TZ" : "Europe/Berlin"}
{"ID" : "351","Name" : "Tegel","City" : "Berlin","Country" : "Germany","IATA" : "TXL","ICAO" : "EDDT","Lat" : "52.559686","Long" : "13.287711","Alt" : "122","Timezone" : "1","DST" : "E","TZ" : "Europe/Berlin"}
{"ID" : "352","Name" : "Hannover","City" : "Hannover","Country" : "Germany","IATA" : "HAJ","ICAO" : "EDDV","Lat" : "52.461056","Long" : "9.685078","Alt" : "183","Timezone" : "1","DST" : "E","TZ" : "Europe/Berlin"}
{"ID" : "353","Name" : "Neuenland","City" : "Bremen","Country" : "Germany","IATA" : "BRE","ICAO" : "EDDW","Lat" : "53.0475","Long" : "8.786667","Alt" : "14","Timezone" : "1","DST" : "E","TZ" : "Europe/Berlin"}
{"ID" : "354","Name" : "Egelsbach","City" : "Egelsbach","Country" : "Germany","IATA" : null,"ICAO" : "EDFE","Lat" : "49.960833","Long" : "8.6415","Alt" : "385","Timezone" : "1","DST" : "E","TZ" : "Europe/Berlin"}
{"ID" : "355","Name" : "Frankfurt Hahn","City" : "Hahn","Country" : "Germany","IATA" : "HHN","ICAO" : "EDFH","Lat" : "49.948672","Long" : "7.263892","Alt" : "1649","Timezone" : "1","DST" : "E","TZ" : "Europe/Berlin"}
{"ID" : "356","Name" : "Mannheim City","City" : "Mannheim","Country" : "Germany","IATA" : "MHG","ICAO" : "EDFM","Lat" : "49.472706","Long" : "8.514264","Alt" : "309","Timezone" : "1","DST" : "E","TZ" : "Europe/Berlin"}
{"ID" : "357","Name" : "Allendorf Eder","City" : "Allendorf","Country" : "Germany","IATA" : null,"ICAO" : "EDFQ","Lat" : "51.034878","Long" : "8.680839","Alt" : "1164","Timezone" : "1","DST" : "E","TZ" : "Europe/Berlin"}
{"ID" : "358","Name" : "Worms","City" : "Worms","Country" : "Germany","IATA" : null,"ICAO" : "EDFV","Lat" : "49.606511","Long" : "8.3684","Alt" : "295","Timezone" : "1","DST" : "E","TZ" : "Europe/Berlin"}
{"ID" : "359","Name" : "Mainz Finthen","City" : "Mainz","Country" : "Germany","IATA" : null,"ICAO" : "EDFZ","Lat" : "49.968931","Long" : "8.148336","Alt" : "760","Timezone" : "1","DST" : "E","TZ" : "Europe/Berlin"}
{"ID" : "360","Name" : "Eisenach Kindel","City" : "Eisenach","Country" : "Germany","IATA" : null,"ICAO" : "EDGE","Lat" : "50.992797","Long" : "10.472711","Alt" : "1101","Timezone" : "1","DST" : "E","TZ" : "Europe/Berlin"}
{"ID" : "361","Name" : "Siegerland","City" : "Siegerland","Country" : "Germany","IATA" : null,"ICAO" : "EDGS","Lat" : "50.707658","Long" : "8.082969","Alt" : "1966","Timezone" : "1","DST" : "E","TZ" : "Europe/Berlin"}
{"ID" : "362","Name" : "Hamburg Finkenwerder","City" : "Hamburg","Country" : "Germany","IATA" : "XFW","ICAO" : "EDHI","Lat" : "53.535886","Long" : "9.837025","Alt" : "22","Timezone" : "1","DST" : "E","TZ" : "Europe/Berlin"}
{"ID" : "363","Name" : "Kiel Holtenau","City" : "Kiel","Country" : "Germany","IATA" : "KEL","ICAO" : "EDHK","Lat" : "54.3795","Long" : "10.145167","Alt" : "101","Timezone" : "1","DST" : "E","TZ" : "Europe/Berlin"}
{"ID" : "364","Name" : "Lubeck Blankensee","City" : "Luebeck","Country" : "Germany","IATA" : "LBC","ICAO" : "EDHL","Lat" : "53.805367","Long" : "10.719222","Alt" : "53","Timezone" : "1","DST" : "E","TZ" : "Europe/Berlin"}
{"ID" : "365","Name" : "Dahlemer Binz","City" : "Dahlemer Binz","Country" : "Germany","IATA" : null,"ICAO" : "EDKV","Lat" : "50.405888","Long" : "6.528083","Alt" : "1896","Timezone" : "1","DST" : "E","TZ" : "Europe/Berlin"}
{"ID" : "366","Name" : "Meinerzhagen","City" : "Meinerzhagen","Country" : "Germany","IATA" : null,"ICAO" : "EDKZ","Lat" : "51.099445","Long" : "7.601944","Alt" : "1548","Timezone" : "1","DST" : "E","TZ" : "Europe/Berlin"}
{"ID" : "367","Name" : "Arnsberg Menden","City" : "Arnsberg","Country" : "Germany","IATA" : "ZCA","ICAO" : "EDLA","Lat" : "51.483333","Long" : "7.899333","Alt" : "794","Timezone" : "1","DST" : "E","TZ" : "Europe/Berlin"}
{"ID" : "368","Name" : "Essen Mulheim","City" : "Essen","Country" : "Germany","IATA" : "ESS","ICAO" : "EDLE","Lat" : "51.402333","Long" : "6.937333","Alt" : "424","Timezone" : "1","DST" : "E","TZ" : "Europe/Berlin"}
{"ID" : "369","Name" : "Bielefeld","City" : "Bielefeld","Country" : "Germany","IATA" : null,"ICAO" : "EDLI","Lat" : "51.964833","Long" : "8.544833","Alt" : "454","Timezone" : "1","DST" : "E","TZ" : "Europe/Berlin"}
{"ID" : "370","Name" : "Monchengladbach","City" : "Moenchengladbach","Country" : "Germany","IATA" : "MGL","ICAO" : "EDLN","Lat" : "51.230356","Long" : "6.504494","Alt" : "125","Timezone" : "1","DST" : "E","TZ" : "Europe/Berlin"}
{"ID" : "371","Name" : "Paderborn Lippstadt","City" : "Paderborn","Country" : "Germany","IATA" : "PAD","ICAO" : "EDLP","Lat" : "51.614089","Long" : "8.616317","Alt" : "699","Timezone" : "1","DST" : "E","TZ" : "Europe/Berlin"}
{"ID" : "372","Name" : "Stadtlohn Vreden","City" : "Stadtlohn","Country" : "Germany","IATA" : null,"ICAO" : "EDLS","Lat" : "51.995844","Long" : "6.840667","Alt" : "157","Timezone" : "1","DST" : "E","TZ" : "Europe/Berlin"}
{"ID" : "373","Name" : "Dortmund","City" : "Dortmund","Country" : "Germany","IATA" : "DTM","ICAO" : "EDLW","Lat" : "51.518314","Long" : "7.612242","Alt" : "425","Timezone" : "1","DST" : "E","TZ" : "Europe/Berlin"}
{"ID" : "374","Name" : "Augsburg","City" : "Augsburg","Country" : "Germany","IATA" : "AGB","ICAO" : "EDMA","Lat" : "48.425158","Long" : "10.931764","Alt" : "1515","Timezone" : "1","DST" : "E","TZ" : "Europe/Berlin"}
{"ID" : "375","Name" : "Biberach An Der Riss","City" : "Biberach","Country" : "Germany","IATA" : null,"ICAO" : "EDMB","Lat" : "48.111","Long" : "9.762833","Alt" : "1903","Timezone" : "1","DST" : "E","TZ" : "Europe/Berlin"}
{"ID" : "376","Name" : "Eggenfelden","City" : "Eggenfelden","Country" : "Germany","IATA" : null,"ICAO" : "EDME","Lat" : "48.396167","Long" : "12.723667","Alt" : "1342","Timezone" : "1","DST" : "E","TZ" : "Europe/Berlin"}
{"ID" : "377","Name" : "Mindelheim Mattsies","City" : "Mindelheim","Country" : "Germany","IATA" : null,"ICAO" : "EDMN","Lat" : "48.108833","Long" : "10.524333","Alt" : "1857","Timezone" : "1","DST" : "E","TZ" : "Europe/Berlin"}
{"ID" : "378","Name" : "Oberpfaffenhofen","City" : "Oberpfaffenhofen","Country" : "Germany","IATA" : "OBF","ICAO" : "EDMO","Lat" : "48.081364","Long" : "11.283067","Alt" : "1947","Timezone" : "1","DST" : "E","TZ" : "Europe/Berlin"}
{"ID" : "379","Name" : "Straubing","City" : "Straubing","Country" : "Germany","IATA" : null,"ICAO" : "EDMS","Lat" : "48.90095","Long" : "12.518186","Alt" : "1054","Timezone" : "1","DST" : "E","TZ" : "Europe/Berlin"}
{"ID" : "380","Name" : "Vilshofen","City" : "Vilshofen","Country" : "Germany","IATA" : null,"ICAO" : "EDMV","Lat" : "48.635167","Long" : "13.195667","Alt" : "991","Timezone" : "1","DST" : "E","TZ" : "Europe/Berlin"}
{"ID" : "381","Name" : "Leutkirch Unterzeil","City" : "Leutkirch","Country" : "Germany","IATA" : null,"ICAO" : "EDNL","Lat" : "47.859117","Long" : "10.014572","Alt" : "2099","Timezone" : "1","DST" : "E","TZ" : "Europe/Berlin"}
{"ID" : "382","Name" : "Friedrichshafen","City" : "Friedrichshafen","Country" : "Germany","IATA" : "FDH","ICAO" : "EDNY","Lat" : "47.671317","Long" : "9.511486","Alt" : "1367","Timezone" : "1","DST" : "E","TZ" : "Europe/Berlin"}
{"ID" : "383","Name" : "Schwerin Parchim","City" : "Parchim","Country" : "Germany","IATA" : "SZW","ICAO" : "EDOP","Lat" : "53.426997","Long" : "11.783436","Alt" : "166","Timezone" : "1","DST" : "E","TZ" : "Europe/Berlin"}
{"ID" : "384","Name" : "Stendal Borstel","City" : "Stendal","Country" : "Germany","IATA" : "ZSN","ICAO" : "EDOV","Lat" : "52.627778","Long" : "11.818333","Alt" : "184","Timezone" : "1","DST" : "E","TZ" : "Europe/Berlin"}
{"ID" : "385","Name" : "Aalen Heidenheim Elchingen","City" : "Aalen-heidenheim","Country" : "Germany","IATA" : null,"ICAO" : "EDPA","Lat" : "48.777833","Long" : "10.264667","Alt" : "1916","Timezone" : "1","DST" : "E","TZ" : "Europe/Berlin"}
{"ID" : "386","Name" : "Bayreuth","City" : "Bayreuth","Country" : "Germany","IATA" : "BYU","ICAO" : "EDQD","Lat" : "49.984428","Long" : "11.638569","Alt" : "1601","Timezone" : "1","DST" : "E","TZ" : "Europe/Berlin"}
{"ID" : "387","Name" : "Burg Feuerstein","City" : "Burg Feuerstein","Country" : "Germany","IATA" : null,"ICAO" : "EDQE","Lat" : "49.793833","Long" : "11.133167","Alt" : "1674","Timezone" : "1","DST" : "E","TZ" : "Europe/Berlin"}
{"ID" : "388","Name" : "Hof Plauen","City" : "Hof","Country" : "Germany","IATA" : "HOQ","ICAO" : "EDQM","Lat" : "50.288836","Long" : "11.854919","Alt" : "1960","Timezone" : "1","DST" : "E","TZ" : "Europe/Berlin"}
{"ID" : "389","Name" : "Hassfurt Schweinfurt","City" : "Hassfurt","Country" : "Germany","IATA" : null,"ICAO" : "EDQT","Lat" : "50.018","Long" : "10.5295","Alt" : "718","Timezone" : "1","DST" : "E","TZ" : "Europe/Berlin"}
{"ID" : "390","Name" : "Koblenz Winningen","City" : "Koblenz","Country" : "Germany","IATA" : "ZNV","ICAO" : "EDRK","Lat" : "50.3255","Long" : "7.528667","Alt" : "640","Timezone" : "1","DST" : "E","TZ" : "Europe/Berlin"}
{"ID" : "391","Name" : "Trier Fohren","City" : "Trier","Country" : "Germany","IATA" : "ZQF","ICAO" : "EDRT","Lat" : "49.8635","Long" : "6.788167","Alt" : "665","Timezone" : "1","DST" : "E","TZ" : "Europe/Berlin"}
{"ID" : "392","Name" : "Speyer","City" : "Speyer","Country" : "Germany","IATA" : "ZQC","ICAO" : "EDRY","Lat" : "49.302776","Long" : "8.451195","Alt" : "312","Timezone" : "1","DST" : "E","TZ" : "Europe/Berlin"}
{"ID" : "393","Name" : "Zweibrucken","City" : "Zweibruecken","Country" : "Germany","IATA" : null,"ICAO" : "EDRZ","Lat" : "49.209525","Long" : "7.400647","Alt" : "1133","Timezone" : "1","DST" : "E","TZ" : "Europe/Berlin"}
{"ID" : "394","Name" : "Donaueschingen Villingen","City" : "Donaueschingen","Country" : "Germany","IATA" : "ZQL","ICAO" : "EDTD","Lat" : "47.973331","Long" : "8.522223","Alt" : "2231","Timezone" : "1","DST" : "E","TZ" : "Europe/Berlin"}
{"ID" : "395","Name" : "Freiburg","City" : "Freiburg","Country" : "Germany","IATA" : null,"ICAO" : "EDTF","Lat" : "48.022653","Long" : "7.832583","Alt" : "799","Timezone" : "1","DST" : "E","TZ" : "Europe/Berlin"}
{"ID" : "396","Name" : "Mengen Hohentengen","City" : "Mengen","Country" : "Germany","IATA" : null,"ICAO" : "EDTM","Lat" : "48.053833","Long" : "9.372833","Alt" : "1820","Timezone" : "1","DST" : "E","TZ" : "Europe/Berlin"}
{"ID" : "397","Name" : "Schwabisch Hall","City" : "Schwaebisch Hall","Country" : "Germany","IATA" : null,"ICAO" : "EDTY","Lat" : "49.118317","Long" : "9.783956","Alt" : "1311","Timezone" : "1","DST" : "E","TZ" : "Europe/Berlin"}
{"ID" : "398","Name" : "Finsterwalde Schacksdorf","City" : "Soest","Country" : "Germany","IATA" : null,"ICAO" : "EDUS","Lat" : "51.6075","Long" : "13.738","Alt" : "399","Timezone" : "1","DST" : "E","TZ" : "Europe/Berlin"}
{"ID" : "399","Name" : "Braunschweig Wolfsburg","City" : "Braunschweig","Country" : "Germany","IATA" : "BWE","ICAO" : "EDVE","Lat" : "52.319167","Long" : "10.556111","Alt" : "295","Timezone" : "1","DST" : "E","TZ" : "Europe/Berlin"}
{"ID" : "400","Name" : "Kassel Calden","City" : "Kassel","Country" : "Germany","IATA" : "KSF","ICAO" : "EDVK","Lat" : "51.408394","Long" : "9.377631","Alt" : "908","Timezone" : "1","DST" : "E","TZ" : "Europe/Berlin"}
{"ID" : "401","Name" : "Hildesheim","City" : "Hildesheim","Country" : "Germany","IATA" : null,"ICAO" : "EDVM","Lat" : "52.179833","Long" : "9.945667","Alt" : "293","Timezone" : "1","DST" : "E","TZ" : "Europe/Berlin"}
{"ID" : "402","Name" : "Bremerhaven","City" : "Bremerhaven","Country" : "Germany","IATA" : "BRV","ICAO" : "EDWB","Lat" : "53.507081","Long" : "8.572878","Alt" : "11","Timezone" : "1","DST" : "E","TZ" : "Europe/Berlin"}
{"ID" : "403","Name" : "Emden","City" : "Emden","Country" : "Germany","IATA" : "EME","ICAO" : "EDWE","Lat" : "53.391186","Long" : "7.227408","Alt" : "2","Timezone" : "1","DST" : "E","TZ" : "Europe/Berlin"}
{"ID" : "404","Name" : "Leer Papenburg","City" : "Leer","Country" : "Germany","IATA" : null,"ICAO" : "EDWF","Lat" : "53.271592","Long" : "7.442344","Alt" : "3","Timezone" : "1","DST" : "E","TZ" : "Europe/Berlin"}
{"ID" : "405","Name" : "Wilhelmshaven Mariensiel","City" : "Wilhelmshaven","Country" : "Germany","IATA" : "WVN","ICAO" : "EDWI","Lat" : "53.504833","Long" : "8.053333","Alt" : "16","Timezone" : "1","DST" : "E","TZ" : "Europe/Berlin"}
{"ID" : "406","Name" : "Borkum","City" : "Borkum","Country" : "Germany","IATA" : "BMK","ICAO" : "EDWR","Lat" : "53.5955","Long" : "6.709167","Alt" : "3","Timezone" : "1","DST" : "E","TZ" : "Europe/Berlin"}
{"ID" : "407","Name" : "Norderney","City" : "Norderney","Country" : "Germany","IATA" : "NRD","ICAO" : "EDWY","Lat" : "53.706822","Long" : "7.230247","Alt" : "6","Timezone" : "1","DST" : "E","TZ" : "Europe/Berlin"}
{"ID" : "408","Name" : "Flensburg Schaferhaus","City" : "Flensburg","Country" : "Germany","IATA" : "FLF","ICAO" : "EDXF","Lat" : "54.771772","Long" : "9.378214","Alt" : "130","Timezone" : "1","DST" : "E","TZ" : "Europe/Berlin"}
{"ID" : "409","Name" : "Rendsburg Schachtholm","City" : "Rendsburg","Country" : "Germany","IATA" : null,"ICAO" : "EDXR","Lat" : "54.220928","Long" : "9.600803","Alt" : "23","Timezone" : "1","DST" : "E","TZ" : "Europe/Berlin"}
{"ID" : "410","Name" : "Westerland Sylt","City" : "Westerland","Country" : "Germany","IATA" : "GWT","ICAO" : "EDXW","Lat" : "54.91325","Long" : "8.340472","Alt" : "51","Timezone" : "1","DST" : "E","TZ" : "Europe/Berlin"}
{"ID" : "411","Name" : "Amari","City" : "Armari Air Force Base","Country" : "Estonia","IATA" : null,"ICAO" : "EEEI","Lat" : "59.260286","Long" : "24.208467","Alt" : "65","Timezone" : "2","DST" : "E","TZ" : "Europe/Tallinn"}
{"ID" : "412","Name" : "Kardla","City" : "Kardla","Country" : "Estonia","IATA" : "KDL","ICAO" : "EEKA","Lat" : "58.990756","Long" : "22.830733","Alt" : "18","Timezone" : "2","DST" : "E","TZ" : "Europe/Tallinn"}
{"ID" : "413","Name" : "Kuressaare","City" : "Kuressaare","Country" : "Estonia","IATA" : "URE","ICAO" : "EEKE","Lat" : "58.229883","Long" : "22.509494","Alt" : "14","Timezone" : "2","DST" : "E","TZ" : "Europe/Tallinn"}
{"ID" : "414","Name" : "Parnu","City" : "Parnu","Country" : "Estonia","IATA" : "EPU","ICAO" : "EEPU","Lat" : "58.419044","Long" : "24.472819","Alt" : "47","Timezone" : "2","DST" : "E","TZ" : "Europe/Tallinn"}
{"ID" : "415","Name" : "Tallinn","City" : "Tallinn-ulemiste International","Country" : "Estonia","IATA" : "TLL","ICAO" : "EETN","Lat" : "59.413317","Long" : "24.832844","Alt" : "131","Timezone" : "2","DST" : "E","TZ" : "Europe/Tallinn"}
{"ID" : "416","Name" : "Tartu","City" : "Tartu","Country" : "Estonia","IATA" : "TAY","ICAO" : "EETU","Lat" : "58.307461","Long" : "26.690428","Alt" : "219","Timezone" : "2","DST" : "E","TZ" : "Europe/Tallinn"}
{"ID" : "417","Name" : "Enontekio","City" : "Enontekio","Country" : "Finland","IATA" : "ENF","ICAO" : "EFET","Lat" : "68.362586","Long" : "23.424322","Alt" : "1005","Timezone" : "2","DST" : "E","TZ" : "Europe/Helsinki"}
{"ID" : "418","Name" : "Eura","City" : "Eura","Country" : "Finland","IATA" : null,"ICAO" : "EFEU","Lat" : "61.116112","Long" : "22.201389","Alt" : "259","Timezone" : "2","DST" : "E","TZ" : "Europe/Helsinki"}
{"ID" : "419","Name" : "Halli","City" : "Halli","Country" : "Finland","IATA" : "KEV","ICAO" : "EFHA","Lat" : "61.85605","Long" : "24.7866","Alt" : "479","Timezone" : "2","DST" : "E","TZ" : "Europe/Helsinki"}
{"ID" : "420","Name" : "Helsinki Malmi","City" : "Helsinki","Country" : "Finland","IATA" : "HEM","ICAO" : "EFHF","Lat" : "60.254558","Long" : "25.042828","Alt" : "57","Timezone" : "2","DST" : "E","TZ" : "Europe/Helsinki"}
{"ID" : "421","Name" : "Helsinki Vantaa","City" : "Helsinki","Country" : "Finland","IATA" : "HEL","ICAO" : "EFHK","Lat" : "60.317222","Long" : "24.963333","Alt" : "179","Timezone" : "2","DST" : "E","TZ" : "Europe/Helsinki"}
{"ID" : "422","Name" : "Hameenkyro","City" : "Hameenkyro","Country" : "Finland","IATA" : null,"ICAO" : "EFHM","Lat" : "61.689656","Long" : "23.073744","Alt" : "449","Timezone" : "2","DST" : "E","TZ" : "Europe/Helsinki"}
{"ID" : "423","Name" : "Hanko","City" : "Hanko","Country" : "Finland","IATA" : null,"ICAO" : "EFHN","Lat" : "59.848864","Long" : "23.083583","Alt" : "20","Timezone" : "2","DST" : "E","TZ" : "Europe/Helsinki"}
{"ID" : "424","Name" : "Hyvinkaa","City" : "Hyvinkaa","Country" : "Finland","IATA" : "HYV","ICAO" : "EFHV","Lat" : "60.654444","Long" : "24.881111","Alt" : "430","Timezone" : "2","DST" : "E","TZ" : "Europe/Helsinki"}
{"ID" : "425","Name" : "Kiikala","City" : "Kikala","Country" : "Finland","IATA" : null,"ICAO" : "EFIK","Lat" : "60.462502","Long" : "23.6525","Alt" : "381","Timezone" : "2","DST" : "E","TZ" : "Europe/Helsinki"}
{"ID" : "426","Name" : "Immola","City" : "Immola","Country" : "Finland","IATA" : null,"ICAO" : "EFIM","Lat" : "61.249172","Long" : "28.903711","Alt" : "338","Timezone" : "2","DST" : "E","TZ" : "Europe/Helsinki"}
{"ID" : "427","Name" : "Kitee","City" : "Kitee","Country" : "Finland","IATA" : null,"ICAO" : "EFIT","Lat" : "62.166111","Long" : "30.073611","Alt" : "364","Timezone" : "2","DST" : "E","TZ" : "Europe/Helsinki"}
{"ID" : "428","Name" : "Ivalo","City" : "Ivalo","Country" : "Finland","IATA" : "IVL","ICAO" : "EFIV","Lat" : "68.607269","Long" : "27.405328","Alt" : "481","Timezone" : "2","DST" : "E","TZ" : "Europe/Helsinki"}
{"ID" : "429","Name" : "Joensuu","City" : "Joensuu","Country" : "Finland","IATA" : "JOE","ICAO" : "EFJO","Lat" : "62.662906","Long" : "29.60755","Alt" : "398","Timezone" : "2","DST" : "E","TZ" : "Europe/Helsinki"}
{"ID" : "430","Name" : "Jyvaskyla","City" : "Jyvaskyla","Country" : "Finland","IATA" : "JYV","ICAO" : "EFJY","Lat" : "62.399453","Long" : "25.678253","Alt" : "459","Timezone" : "2","DST" : "E","TZ" : "Europe/Helsinki"}
{"ID" : "431","Name" : "Kauhava","City" : "Kauhava","Country" : "Finland","IATA" : "KAU","ICAO" : "EFKA","Lat" : "63.127078","Long" : "23.051442","Alt" : "151","Timezone" : "2","DST" : "E","TZ" : "Europe/Helsinki"}
{"ID" : "432","Name" : "Kemi Tornio","City" : "Kemi","Country" : "Finland","IATA" : "KEM","ICAO" : "EFKE","Lat" : "65.781889","Long" : "24.5991","Alt" : "61","Timezone" : "2","DST" : "E","TZ" : "Europe/Helsinki"}
{"ID" : "433","Name" : "Kajaani","City" : "Kajaani","Country" : "Finland","IATA" : "KAJ","ICAO" : "EFKI","Lat" : "64.285472","Long" : "27.692414","Alt" : "483","Timezone" : "2","DST" : "E","TZ" : "Europe/Helsinki"}
{"ID" : "434","Name" : "Kauhajoki","City" : "Kauhajoki","Country" : "Finland","IATA" : null,"ICAO" : "EFKJ","Lat" : "62.462502","Long" : "22.393055","Alt" : "407","Timezone" : "2","DST" : "E","TZ" : "Europe/Helsinki"}
{"ID" : "435","Name" : "Kruunupyy","City" : "Kruunupyy","Country" : "Finland","IATA" : "KOK","ICAO" : "EFKK","Lat" : "63.721172","Long" : "23.143131","Alt" : "84","Timezone" : "2","DST" : "E","TZ" : "Europe/Helsinki"}
{"ID" : "436","Name" : "Kemijarvi","City" : "Kemijarvi","Country" : "Finland","IATA" : null,"ICAO" : "EFKM","Lat" : "66.712883","Long" : "27.156786","Alt" : "692","Timezone" : "2","DST" : "E","TZ" : "Europe/Helsinki"}
{"ID" : "437","Name" : "Kuusamo","City" : "Kuusamo","Country" : "Finland","IATA" : "KAO","ICAO" : "EFKS","Lat" : "65.987575","Long" : "29.239381","Alt" : "866","Timezone" : "2","DST" : "E","TZ" : "Europe/Helsinki"}
{"ID" : "438","Name" : "Kittila","City" : "Kittila","Country" : "Finland","IATA" : "KTT","ICAO" : "EFKT","Lat" : "67.701022","Long" : "24.84685","Alt" : "644","Timezone" : "2","DST" : "E","TZ" : "Europe/Helsinki"}
{"ID" : "439","Name" : "Kuopio","City" : "Kuopio","Country" : "Finland","IATA" : "KUO","ICAO" : "EFKU","Lat" : "63.00715","Long" : "27.797756","Alt" : "323","Timezone" : "2","DST" : "E","TZ" : "Europe/Helsinki"}
{"ID" : "440","Name" : "Lahti Vesivehmaa","City" : "Vesivehmaa","Country" : "Finland","IATA" : null,"ICAO" : "EFLA","Lat" : "61.144158","Long" : "25.693508","Alt" : "502","Timezone" : "2","DST" : "E","TZ" : "Europe/Helsinki"}
{"ID" : "441","Name" : "Lappeenranta","City" : "Lappeenranta","Country" : "Finland","IATA" : "LPP","ICAO" : "EFLP","Lat" : "61.044553","Long" : "28.144397","Alt" : "349","Timezone" : "2","DST" : "E","TZ" : "Europe/Helsinki"}
{"ID" : "442","Name" : "Mariehamn","City" : "Mariehamn","Country" : "Finland","IATA" : "MHQ","ICAO" : "EFMA","Lat" : "60.122203","Long" : "19.898156","Alt" : "17","Timezone" : "2","DST" : "E","TZ" : "Europe/Mariehamn"}
{"ID" : "443","Name" : "Menkijarvi","City" : "Menkijarvi","Country" : "Finland","IATA" : null,"ICAO" : "EFME","Lat" : "62.946667","Long" : "23.518889","Alt" : "331","Timezone" : "2","DST" : "E","TZ" : "Europe/Helsinki"}
{"ID" : "444","Name" : "Mikkeli","City" : "Mikkeli","Country" : "Finland","IATA" : "MIK","ICAO" : "EFMI","Lat" : "61.6866","Long" : "27.201794","Alt" : "329","Timezone" : "2","DST" : "E","TZ" : "Europe/Helsinki"}
{"ID" : "445","Name" : "Nummela","City" : "Nummela","Country" : "Finland","IATA" : null,"ICAO" : "EFNU","Lat" : "60.333889","Long" : "24.296389","Alt" : "367","Timezone" : "2","DST" : "E","TZ" : "Europe/Helsinki"}
{"ID" : "446","Name" : "Oulu","City" : "Oulu","Country" : "Finland","IATA" : "OUL","ICAO" : "EFOU","Lat" : "64.930061","Long" : "25.354564","Alt" : "47","Timezone" : "2","DST" : "E","TZ" : "Europe/Helsinki"}
{"ID" : "447","Name" : "Piikajarvi","City" : "Piikajarvi","Country" : "Finland","IATA" : null,"ICAO" : "EFPI","Lat" : "61.245558","Long" : "22.193356","Alt" : "148","Timezone" : "2","DST" : "E","TZ" : "Europe/Helsinki"}
{"ID" : "448","Name" : "Pori","City" : "Pori","Country" : "Finland","IATA" : "POR","ICAO" : "EFPO","Lat" : "61.461686","Long" : "21.799983","Alt" : "44","Timezone" : "2","DST" : "E","TZ" : "Europe/Helsinki"}
{"ID" : "449","Name" : "Pudasjarvi","City" : "Pudasjarvi","Country" : "Finland","IATA" : null,"ICAO" : "EFPU","Lat" : "65.402222","Long" : "26.946944","Alt" : "397","Timezone" : "2","DST" : "E","TZ" : "Europe/Helsinki"}
{"ID" : "450","Name" : "Pyhasalmi","City" : "Pyhasalmi","Country" : "Finland","IATA" : null,"ICAO" : "EFPY","Lat" : "63.731917","Long" : "25.926306","Alt" : "528","Timezone" : "2","DST" : "E","TZ" : "Europe/Helsinki"}
{"ID" : "451","Name" : "Raahe Pattijoki","City" : "Pattijoki","Country" : "Finland","IATA" : null,"ICAO" : "EFRH","Lat" : "64.688056","Long" : "24.695833","Alt" : "118","Timezone" : "2","DST" : "E","TZ" : "Europe/Helsinki"}
{"ID" : "452","Name" : "Rantasalmi","City" : "Rantasalmi","Country" : "Finland","IATA" : null,"ICAO" : "EFRN","Lat" : "62.065481","Long" : "28.356494","Alt" : "292","Timezone" : "2","DST" : "E","TZ" : "Europe/Helsinki"}
{"ID" : "453","Name" : "Rovaniemi","City" : "Rovaniemi","Country" : "Finland","IATA" : "RVN","ICAO" : "EFRO","Lat" : "66.564822","Long" : "25.830411","Alt" : "642","Timezone" : "2","DST" : "E","TZ" : "Europe/Helsinki"}
{"ID" : "454","Name" : "Rayskala","City" : "Rayskala","Country" : "Finland","IATA" : null,"ICAO" : "EFRY","Lat" : "60.744722","Long" : "24.107778","Alt" : "407","Timezone" : "2","DST" : "E","TZ" : "Europe/Helsinki"}
